header:
  stamp:
    sec: 8
    nanosec: 638000000
  frame_id: ekf_frame_
pose:
  position:
    x: 0.0013743856772619344
    y: 4.393700173094869e-07
    z: 0.0
  orientation:
    x: 0.0
    y: 0.0
    z: 0.0003980129787388623
    w: 1.0
---
header:
  stamp:
    sec: 8
    nanosec: 648000000
  frame_id: ekf_frame_
pose:
  position:
    x: 0.001354354363105298
    y: 4.234245401610702e-07
    z: 0.0
  orientation:
    x: 0.0
    y: 0.0
    z: 0.00040540821768525996
    w: 1.0
---
header:
  stamp:
    sec: 8
    nanosec: 658000000
  frame_id: ekf_frame_
pose:
  position:
    x: 0.001335863962213849
    y: 4.084748152578843e-07
    z: 0.0
  orientation:
    x: 0.0
    y: 0.0
    z: 0.00039699302929724676
    w: 1.0
---
header:
  stamp:
    sec: 8
    nanosec: 668000000
  frame_id: ekf_frame_
pose:
  position:
    x: 0.0013525573764923624
    y: 4.239472223602324e-07
    z: 0.0
  orientation:
    x: 0.0
    y: 0.0
    z: 0.00037470596649435945
    w: 1.0
---
header:
  stamp:
    sec: 8
    nanosec: 678000000
  frame_id: ekf_frame_
pose:
  position:
    x: 0.001351698861008736
    y: 4.232708387338858e-07
    z: 0.0
  orientation:
    x: 0.0
    y: 0.0
    z: 0.00036295488106638404
    w: 1.0
---
header:
  stamp:
    sec: 8
    nanosec: 678000000
  frame_id: ekf_frame_
pose:
  position:
    x: 0.0013558071586695598
    y: 4.2626712764563575e-07
    z: 0.0
  orientation:
    x: 0.0
    y: 0.0
    z: 0.00035451806091763634
    w: 1.0
---
header:
  stamp:
    sec: 8
    nanosec: 688000000
  frame_id: ekf_frame_
pose:
  position:
    x: 0.0013043017706299378
    y: 3.897780468714373e-07
    z: 0.0
  orientation:
    x: 0.0
    y: 0.0
    z: 0.0003536731910449522
    w: 1.0
---
header:
  stamp:
    sec: 8
    nanosec: 698000000
  frame_id: ekf_frame_
pose:
  position:
    x: 0.0013058211818720333
    y: 3.9085622335036227e-07
    z: 0.0
  orientation:
    x: 0.0
    y: 0.0
    z: 0.00035155897840829066
    w: 1.0
---
header:
  stamp:
    sec: 8
    nanosec: 708000000
  frame_id: ekf_frame_
pose:
  position:
    x: 0.0013540154601354023
    y: 4.246016940527465e-07
    z: 0.0
  orientation:
    x: 0.0
    y: 0.0
    z: 0.000357692796285438
    w: 1.0
---
header:
  stamp:
    sec: 8
    nanosec: 708000000
  frame_id: ekf_frame_
pose:
  position:
    x: 0.0013566509997619913
    y: 4.2648768329868517e-07
    z: 0.0
  orientation:
    x: 0.0
    y: 0.0
    z: 0.0003605949488075094
    w: 1.0
---
header:
  stamp:
    sec: 8
    nanosec: 718000000
  frame_id: ekf_frame_
pose:
  position:
    x: 0.0014149335048911063
    y: 4.682599197189763e-07
    z: 0.0
  orientation:
    x: 0.0
    y: 0.0
    z: 0.00036186482550122097
    w: 1.0
---
header:
  stamp:
    sec: 8
    nanosec: 728000000
  frame_id: ekf_frame_
pose:
  position:
    x: 0.0014311159301050103
    y: 4.800668887298306e-07
    z: 0.0
  orientation:
    x: 0.0
    y: 0.0
    z: 0.00035808544599795613
    w: 1.0
---
header:
  stamp:
    sec: 8
    nanosec: 738000000
  frame_id: ekf_frame_
pose:
  position:
    x: 0.0014111050131759182
    y: 4.658401694881476e-07
    z: 0.0
  orientation:
    x: 0.0
    y: 0.0
    z: 0.0003634548912117461
    w: 1.0
---
header:
  stamp:
    sec: 8
    nanosec: 738000000
  frame_id: ekf_frame_
pose:
  position:
    x: 0.0014114870978802984
    y: 4.661159743435757e-07
    z: 0.0
  orientation:
    x: 0.0
    y: 0.0
    z: 0.00036996239549848205
    w: 1.0
---
header:
  stamp:
    sec: 8
    nanosec: 748000000
  frame_id: ekf_frame_
pose:
  position:
    x: 0.0014183975621822568
    y: 4.713702219996772e-07
    z: 0.0
  orientation:
    x: 0.0
    y: 0.0
    z: 0.00037594058507877824
    w: 1.0
---
header:
  stamp:
    sec: 8
    nanosec: 758000000
  frame_id: ekf_frame_
pose:
  position:
    x: 0.0013377113427394832
    y: 4.0952284363440176e-07
    z: 0.0
  orientation:
    x: 0.0
    y: 0.0
    z: 0.0003728056702677379
    w: 1.0
---
header:
  stamp:
    sec: 8
    nanosec: 758000000
  frame_id: ekf_frame_
pose:
  position:
    x: 0.0013377115324632932
    y: 4.0952298465254196e-07
    z: 0.0
  orientation:
    x: 0.0
    y: 0.0
    z: 0.00037280568481972033
    w: 1.0
---
header:
  stamp:
    sec: 8
    nanosec: 768000000
  frame_id: ekf_frame_
pose:
  position:
    x: 0.001319622738017345
    y: 3.9605680854787296e-07
    z: 0.0
  orientation:
    x: 0.0
    y: 0.0
    z: 0.0003729844348431071
    w: 1.0
---
header:
  stamp:
    sec: 8
    nanosec: 778000000
  frame_id: ekf_frame_
pose:
  position:
    x: 0.0013171475161631017
    y: 3.9422707828069946e-07
    z: 0.0
  orientation:
    x: 0.0
    y: 0.0
    z: 0.00037943452390938354
    w: 1.0
---
header:
  stamp:
    sec: 8
    nanosec: 788000000
  frame_id: ekf_frame_
pose:
  position:
    x: 0.0012869767366696324
    y: 3.7152964907186136e-07
    z: 0.0
  orientation:
    x: 0.0
    y: 0.0
    z: 0.00038542452048209876
    w: 1.0
---
header:
  stamp:
    sec: 8
    nanosec: 798000000
  frame_id: ekf_frame_
pose:
  position:
    x: 0.0012838466187371292
    y: 3.691075059418586e-07
    z: 0.0
  orientation:
    x: 0.0
    y: 0.0
    z: 0.0003865189062839834
    w: 1.0
---
header:
  stamp:
    sec: 8
    nanosec: 798000000
  frame_id: ekf_frame_
pose:
  position:
    x: 0.0012788739387695665
    y: 3.652593882287651e-07
    z: 0.0
  orientation:
    x: 0.0
    y: 0.0
    z: 0.0003864579316047823
    w: 1.0
---
header:
  stamp:
    sec: 8
    nanosec: 808000000
  frame_id: ekf_frame_
pose:
  position:
    x: 0.0013170998039940152
    y: 3.935328985868316e-07
    z: 0.0
  orientation:
    x: 0.0
    y: 0.0
    z: 0.00040830983814823683
    w: 1.0
---
header:
  stamp:
    sec: 8
    nanosec: 818000000
  frame_id: ekf_frame_
pose:
  position:
    x: 0.0012957940966888894
    y: 3.7590319242749696e-07
    z: 0.0
  orientation:
    x: 0.0
    y: 0.0
    z: 0.0004111083260293388
    w: 1.0
---
header:
  stamp:
    sec: 8
    nanosec: 828000000
  frame_id: ekf_frame_
pose:
  position:
    x: 0.001327990996642181
    y: 4.0128071981869034e-07
    z: 0.0
  orientation:
    x: 0.0
    y: 0.0
    z: 0.00042884416843734453
    w: 1.0
---
header:
  stamp:
    sec: 8
    nanosec: 838000000
  frame_id: ekf_frame_
pose:
  position:
    x: 0.0013626686378866537
    y: 4.318797641115525e-07
    z: 0.0
  orientation:
    x: 0.0
    y: 0.0
    z: 0.0004188993295980999
    w: 1.0
---
header:
  stamp:
    sec: 8
    nanosec: 838000000
  frame_id: ekf_frame_
pose:
  position:
    x: 0.0013424441281943917
    y: 4.1480068761975006e-07
    z: 0.0
  orientation:
    x: 0.0
    y: 0.0
    z: 0.00040892187297034984
    w: 1.0
---
header:
  stamp:
    sec: 8
    nanosec: 848000000
  frame_id: ekf_frame_
pose:
  position:
    x: 0.0013398255268217854
    y: 4.1233325330626004e-07
    z: 0.0
  orientation:
    x: 0.0
    y: 0.0
    z: 0.0004000133950898469
    w: 1.0
---
header:
  stamp:
    sec: 8
    nanosec: 868000000
  frame_id: ekf_frame_
pose:
  position:
    x: 0.0013335630166605602
    y: 4.073357108110023e-07
    z: 0.0
  orientation:
    x: 0.0
    y: 0.0
    z: 0.0003970719179741154
    w: 1.0
---
header:
  stamp:
    sec: 8
    nanosec: 878000000
  frame_id: ekf_frame_
pose:
  position:
    x: 0.0013200807534849003
    y: 3.9633836195538487e-07
    z: 0.0
  orientation:
    x: 0.0
    y: 0.0
    z: 0.0003853188837998012
    w: 1.0
---
header:
  stamp:
    sec: 8
    nanosec: 878000000
  frame_id: ekf_frame_
pose:
  position:
    x: 0.001262703681203269
    y: 3.545062584287479e-07
    z: 0.0
  orientation:
    x: 0.0
    y: 0.0
    z: 0.0003907243806518145
    w: 1.0
---
header:
  stamp:
    sec: 8
    nanosec: 888000000
  frame_id: ekf_frame_
pose:
  position:
    x: 0.0012070466824385853
    y: 3.106291095187388e-07
    z: 0.0
  orientation:
    x: 0.0
    y: 0.0
    z: 0.0003882529864144862
    w: 1.0
---
header:
  stamp:
    sec: 8
    nanosec: 898000000
  frame_id: ekf_frame_
pose:
  position:
    x: 0.001247257996790093
    y: 3.4179675605857983e-07
    z: 0.0
  orientation:
    x: 0.0
    y: 0.0
    z: 0.0003923110027575652
    w: 1.0
---
header:
  stamp:
    sec: 8
    nanosec: 908000000
  frame_id: ekf_frame_
pose:
  position:
    x: 0.001238648056773774
    y: 3.3501436917396124e-07
    z: 0.0
  orientation:
    x: 0.0
    y: 0.0
    z: 0.000392004266105589
    w: 1.0
---
header:
  stamp:
    sec: 8
    nanosec: 918000000
  frame_id: ekf_frame_
pose:
  position:
    x: 0.0012386485292219167
    y: 3.35014744163633e-07
    z: 0.0
  orientation:
    x: 0.0
    y: 0.0
    z: 0.0003920040141944231
    w: 1.0
---
header:
  stamp:
    sec: 8
    nanosec: 928000000
  frame_id: ekf_frame_
pose:
  position:
    x: 0.0012336529009211365
    y: 3.3113992675146755e-07
    z: 0.0
  orientation:
    x: 0.0
    y: 0.0
    z: 0.00040124822582164875
    w: 1.0
---
header:
  stamp:
    sec: 8
    nanosec: 928000000
  frame_id: ekf_frame_
pose:
  position:
    x: 0.001273569106811413
    y: 3.623035242821082e-07
    z: 0.0
  orientation:
    x: 0.0
    y: 0.0
    z: 0.0004221955592227
    w: 1.0
---
header:
  stamp:
    sec: 8
    nanosec: 938000000
  frame_id: ekf_frame_
pose:
  position:
    x: 0.0012271870013443537
    y: 3.2744882066411967e-07
    z: 0.0
  orientation:
    x: 0.0
    y: 0.0
    z: 0.0004585276554001273
    w: 1.0
---
header:
  stamp:
    sec: 8
    nanosec: 948000000
  frame_id: ekf_frame_
pose:
  position:
    x: 0.0012270309299134015
    y: 3.273024267888207e-07
    z: 0.0
  orientation:
    x: 0.0
    y: 0.0
    z: 0.0004596458458045135
    w: 1.0
---
header:
  stamp:
    sec: 8
    nanosec: 948000000
  frame_id: ekf_frame_
pose:
  position:
    x: 0.0012060530455299842
    y: 3.080176026200536e-07
    z: 0.0
  orientation:
    x: 0.0
    y: 0.0
    z: 0.00046050625865140104
    w: 1.0
---
header:
  stamp:
    sec: 8
    nanosec: 958000000
  frame_id: ekf_frame_
pose:
  position:
    x: 0.0012176026164558433
    y: 3.186496969690555e-07
    z: 0.0
  orientation:
    x: 0.0
    y: 0.0
    z: 0.00046052157004537227
    w: 1.0
---
header:
  stamp:
    sec: 8
    nanosec: 968000000
  frame_id: ekf_frame_
pose:
  position:
    x: 0.0011977914773050253
    y: 3.003939498528318e-07
    z: 0.0
  orientation:
    x: 0.0
    y: 0.0
    z: 0.0004601992871195027
    w: 1.0
---
header:
  stamp:
    sec: 8
    nanosec: 978000000
  frame_id: ekf_frame_
pose:
  position:
    x: 0.0012773810105547363
    y: 3.6919985976112905e-07
    z: 0.0
  orientation:
    x: 0.0
    y: 0.0
    z: 0.0005116356924350861
    w: 1.0
---
header:
  stamp:
    sec: 8
    nanosec: 978000000
  frame_id: ekf_frame_
pose:
  position:
    x: 0.0012899221190418068
    y: 3.8228694526350306e-07
    z: 0.0
  orientation:
    x: 0.0
    y: 0.0
    z: 0.0005221388322317346
    w: 1.0
---
header:
  stamp:
    sec: 8
    nanosec: 988000000
  frame_id: ekf_frame_
pose:
  position:
    x: 0.0012706728495193989
    y: 3.62588113235357e-07
    z: 0.0
  orientation:
    x: 0.0
    y: 0.0
    z: 0.0005337502358174962
    w: 1.0
---
header:
  stamp:
    sec: 8
    nanosec: 998000000
  frame_id: ekf_frame_
pose:
  position:
    x: 0.0012857521227116733
    y: 3.788768695843869e-07
    z: 0.0
  orientation:
    x: 0.0
    y: 0.0
    z: 0.0005300293881673941
    w: 1.0
---
header:
  stamp:
    sec: 8
    nanosec: 998000000
  frame_id: ekf_frame_
pose:
  position:
    x: 0.0012857521227340606
    y: 3.7887686960893817e-07
    z: 0.0
  orientation:
    x: 0.0
    y: 0.0
    z: 0.0005300293881685816
    w: 1.0
---
header:
  stamp:
    sec: 8
    nanosec: 998000000
  frame_id: ekf_frame_
pose:
  position:
    x: 0.0012799874527988457
    y: 3.7276599632846726e-07
    z: 0.0
  orientation:
    x: 0.0
    y: 0.0
    z: 0.0005269418613724659
    w: 1.0
---
header:
  stamp:
    sec: 9
    nanosec: 8000000
  frame_id: ekf_frame_
pose:
  position:
    x: 0.0012798278651990453
    y: 3.7281932026759507e-07
    z: 0.0
  orientation:
    x: 0.0
    y: 0.0
    z: 0.0005187852766071773
    w: 1.0
---
header:
  stamp:
    sec: 9
    nanosec: 18000000
  frame_id: ekf_frame_
pose:
  position:
    x: 0.0012946688501091583
    y: 3.8811974475637865e-07
    z: 0.0
  orientation:
    x: 0.0
    y: 0.0
    z: 0.0005196652925024842
    w: 1.0
---
header:
  stamp:
    sec: 9
    nanosec: 28000000
  frame_id: ekf_frame_
pose:
  position:
    x: 0.0012795396007469668
    y: 3.7143810638665985e-07
    z: 0.0
  orientation:
    x: 0.0
    y: 0.0
    z: 0.0005111988879901224
    w: 1.0
---
header:
  stamp:
    sec: 9
    nanosec: 28000000
  frame_id: ekf_frame_
pose:
  position:
    x: 0.0012774304753252893
    y: 3.693023141997e-07
    z: 0.0
  orientation:
    x: 0.0
    y: 0.0
    z: 0.0005142939693670322
    w: 1.0
---
header:
  stamp:
    sec: 9
    nanosec: 38000000
  frame_id: ekf_frame_
pose:
  position:
    x: 0.001316815565965597
    y: 4.086784446408756e-07
    z: 0.0
  orientation:
    x: 0.0
    y: 0.0
    z: 0.0005327758857500909
    w: 1.0
---
header:
  stamp:
    sec: 9
    nanosec: 48000000
  frame_id: ekf_frame_
pose:
  position:
    x: 0.0013458405696261393
    y: 4.400051409278011e-07
    z: 0.0
  orientation:
    x: 0.0
    y: 0.0
    z: 0.0005317059548103365
    w: 1.0
---
header:
  stamp:
    sec: 9
    nanosec: 58000000
  frame_id: ekf_frame_
pose:
  position:
    x: 0.0013765709724806517
    y: 4.727308407940723e-07
    z: 0.0
  orientation:
    x: 0.0
    y: 0.0
    z: 0.0005307619775662953
    w: 1.0
---
header:
  stamp:
    sec: 9
    nanosec: 58000000
  frame_id: ekf_frame_
pose:
  position:
    x: 0.001319689338080458
    y: 4.1196189664007155e-07
    z: 0.0
  orientation:
    x: 0.0
    y: 0.0
    z: 0.0005251803644576089
    w: 1.0
---
header:
  stamp:
    sec: 9
    nanosec: 68000000
  frame_id: ekf_frame_
pose:
  position:
    x: 0.0012537147719228813
    y: 3.4266471834917746e-07
    z: 0.0
  orientation:
    x: 0.0
    y: 0.0
    z: 0.0005269417371299487
    w: 1.0
---
header:
  stamp:
    sec: 9
    nanosec: 78000000
  frame_id: ekf_frame_
pose:
  position:
    x: 0.0012845873597991059
    y: 3.755000188314617e-07
    z: 0.0
  orientation:
    x: 0.0
    y: 0.0
    z: 0.0005244039458818803
    w: 1.0
---
header:
  stamp:
    sec: 9
    nanosec: 78000000
  frame_id: ekf_frame_
pose:
  position:
    x: 0.0013120372485483352
    y: 4.040393677439838e-07
    z: 0.0
  orientation:
    x: 0.0
    y: 0.0
    z: 0.0005299725437417009
    w: 1.0
---
header:
  stamp:
    sec: 9
    nanosec: 88000000
  frame_id: ekf_frame_
pose:
  position:
    x: 0.0012773386520984072
    y: 3.668389587079816e-07
    z: 0.0
  orientation:
    x: 0.0
    y: 0.0
    z: 0.0005186781536035775
    w: 1.0
---
header:
  stamp:
    sec: 9
    nanosec: 98000000
  frame_id: ekf_frame_
pose:
  position:
    x: 0.001303035521392826
    y: 3.94243619218886e-07
    z: 0.0
  orientation:
    x: 0.0
    y: 0.0
    z: 0.0005005144969089338
    w: 1.0
---
header:
  stamp:
    sec: 9
    nanosec: 108000000
  frame_id: ekf_frame_
pose:
  position:
    x: 0.0012685971065717512
    y: 3.599349087722719e-07
    z: 0.0
  orientation:
    x: 0.0
    y: 0.0
    z: 0.0004953989012484904
    w: 1.0
---
header:
  stamp:
    sec: 9
    nanosec: 118000000
  frame_id: ekf_frame_
pose:
  position:
    x: 0.0013001368600089546
    y: 3.9106554551274166e-07
    z: 0.0
  orientation:
    x: 0.0
    y: 0.0
    z: 0.0004956656545424968
    w: 1.0
---
header:
  stamp:
    sec: 9
    nanosec: 128000000
  frame_id: ekf_frame_
pose:
  position:
    x: 0.0012782389925953721
    y: 3.678936133916375e-07
    z: 0.0
  orientation:
    x: 0.0
    y: 0.0
    z: 0.0004739694124425448
    w: 1.0
---
header:
  stamp:
    sec: 9
    nanosec: 138000000
  frame_id: ekf_frame_
pose:
  position:
    x: 0.0012891933342213753
    y: 3.7821317496909714e-07
    z: 0.0
  orientation:
    x: 0.0
    y: 0.0
    z: 0.000465256326416675
    w: 1.0
---
header:
  stamp:
    sec: 9
    nanosec: 138000000
  frame_id: ekf_frame_
pose:
  position:
    x: 0.0012850251002892374
    y: 3.742970262594401e-07
    z: 0.0
  orientation:
    x: 0.0
    y: 0.0
    z: 0.00045415272846446186
    w: 1.0
---
header:
  stamp:
    sec: 9
    nanosec: 148000000
  frame_id: ekf_frame_
pose:
  position:
    x: 0.0013097876468855982
    y: 3.967888824059193e-07
    z: 0.0
  orientation:
    x: 0.0
    y: 0.0
    z: 0.00045323215574036345
    w: 1.0
---
header:
  stamp:
    sec: 9
    nanosec: 148000000
  frame_id: ekf_frame_
pose:
  position:
    x: 0.0013000692211426776
    y: 3.879794679652813e-07
    z: 0.0
  orientation:
    x: 0.0
    y: 0.0
    z: 0.0004478248408760653
    w: 1.0
---
header:
  stamp:
    sec: 9
    nanosec: 158000000
  frame_id: ekf_frame_
pose:
  position:
    x: 0.0012941081944817198
    y: 3.826404465380521e-07
    z: 0.0
  orientation:
    x: 0.0
    y: 0.0
    z: 0.0004413855651650365
    w: 1.0
---
header:
  stamp:
    sec: 9
    nanosec: 168000000
  frame_id: ekf_frame_
pose:
  position:
    x: 0.0013023468326485929
    y: 3.899195830902943e-07
    z: 0.0
  orientation:
    x: 0.0
    y: 0.0
    z: 0.00043899734525884983
    w: 1.0
---
header:
  stamp:
    sec: 9
    nanosec: 178000000
  frame_id: ekf_frame_
pose:
  position:
    x: 0.0013045323903744075
    y: 3.922647165145547e-07
    z: 0.0
  orientation:
    x: 0.0
    y: 0.0
    z: 0.00042542315685668565
    w: 1.0
---
header:
  stamp:
    sec: 9
    nanosec: 188000000
  frame_id: ekf_frame_
pose:
  position:
    x: 0.0012734288887664975
    y: 3.654944754717363e-07
    z: 0.0
  orientation:
    x: 0.0
    y: 0.0
    z: 0.0004112629548969496
    w: 1.0
---
header:
  stamp:
    sec: 9
    nanosec: 188000000
  frame_id: ekf_frame_
pose:
  position:
    x: 0.001319695659210389
    y: 4.034801144142485e-07
    z: 0.0
  orientation:
    x: 0.0
    y: 0.0
    z: 0.0004101962289961707
    w: 1.0
---
header:
  stamp:
    sec: 9
    nanosec: 198000000
  frame_id: ekf_frame_
pose:
  position:
    x: 0.0013260892534784127
    y: 4.0875841726169685e-07
    z: 0.0
  orientation:
    x: 0.0
    y: 0.0
    z: 0.00040578641051770126
    w: 1.0
---
header:
  stamp:
    sec: 9
    nanosec: 208000000
  frame_id: ekf_frame_
pose:
  position:
    x: 0.0013551759114315107
    y: 4.323644302652553e-07
    z: 0.0
  orientation:
    x: 0.0
    y: 0.0
    z: 0.00039641522327613543
    w: 1.0
---
header:
  stamp:
    sec: 9
    nanosec: 208000000
  frame_id: ekf_frame_
pose:
  position:
    x: 0.0014087371932798396
    y: 4.7482962298545304e-07
    z: 0.0
  orientation:
    x: 0.0
    y: 0.0
    z: 0.0003872971138560528
    w: 1.0
---
header:
  stamp:
    sec: 9
    nanosec: 218000000
  frame_id: ekf_frame_
pose:
  position:
    x: 0.0013538238659376418
    y: 4.319089988342775e-07
    z: 0.0
  orientation:
    x: 0.0
    y: 0.0
    z: 0.0003749977334693031
    w: 1.0
---
header:
  stamp:
    sec: 9
    nanosec: 218000000
  frame_id: ekf_frame_
pose:
  position:
    x: 0.0013538235805572432
    y: 4.319087828392791e-07
    z: 0.0
  orientation:
    x: 0.0
    y: 0.0
    z: 0.0003749976905190477
    w: 1.0
---
header:
  stamp:
    sec: 9
    nanosec: 228000000
  frame_id: ekf_frame_
pose:
  position:
    x: 0.0014059981289836138
    y: 4.7145039549614786e-07
    z: 0.0
  orientation:
    x: 0.0
    y: 0.0
    z: 0.00035836035072407224
    w: 1.0
---
header:
  stamp:
    sec: 9
    nanosec: 238000000
  frame_id: ekf_frame_
pose:
  position:
    x: 0.0014010958746189586
    y: 4.679954607246075e-07
    z: 0.0
  orientation:
    x: 0.0
    y: 0.0
    z: 0.0003589958369766226
    w: 1.0
---
header:
  stamp:
    sec: 9
    nanosec: 238000000
  frame_id: ekf_frame_
pose:
  position:
    x: 0.001434620437795245
    y: 4.915802310056098e-07
    z: 0.0
  orientation:
    x: 0.0
    y: 0.0
    z: 0.0003670447702044781
    w: 1.0
---
header:
  stamp:
    sec: 9
    nanosec: 248000000
  frame_id: ekf_frame_
pose:
  position:
    x: 0.0013935438627880987
    y: 4.614071099182664e-07
    z: 0.0
  orientation:
    x: 0.0
    y: 0.0
    z: 0.00036569204370915477
    w: 1.0
---
header:
  stamp:
    sec: 9
    nanosec: 258000000
  frame_id: ekf_frame_
pose:
  position:
    x: 0.0013611771303730343
    y: 4.37408197721375e-07
    z: 0.0
  orientation:
    x: 0.0
    y: 0.0
    z: 0.0003574564532367862
    w: 1.0
---
header:
  stamp:
    sec: 9
    nanosec: 268000000
  frame_id: ekf_frame_
pose:
  position:
    x: 0.0014247056826982858
    y: 4.823820716276827e-07
    z: 0.0
  orientation:
    x: 0.0
    y: 0.0
    z: 0.00036888681400538417
    w: 1.0
---
header:
  stamp:
    sec: 9
    nanosec: 268000000
  frame_id: ekf_frame_
pose:
  position:
    x: 0.0014247058833719297
    y: 4.823822192809687e-07
    z: 0.0
  orientation:
    x: 0.0
    y: 0.0
    z: 0.0003688868264157462
    w: 1.0
---
header:
  stamp:
    sec: 9
    nanosec: 278000000
  frame_id: ekf_frame_
pose:
  position:
    x: 0.0014069540579709976
    y: 4.6998294639266316e-07
    z: 0.0
  orientation:
    x: 0.0
    y: 0.0
    z: 0.0003780372408034823
    w: 1.0
---
header:
  stamp:
    sec: 9
    nanosec: 288000000
  frame_id: ekf_frame_
pose:
  position:
    x: 0.0014015696501100698
    y: 4.6585534230380256e-07
    z: 0.0
  orientation:
    x: 0.0
    y: 0.0
    z: 0.0003747257586205755
    w: 1.0
---
header:
  stamp:
    sec: 9
    nanosec: 298000000
  frame_id: ekf_frame_
pose:
  position:
    x: 0.0014036724326171107
    y: 4.67440115919305e-07
    z: 0.0
  orientation:
    x: 0.0
    y: 0.0
    z: 0.0003745290862994332
    w: 1.0
---
header:
  stamp:
    sec: 9
    nanosec: 308000000
  frame_id: ekf_frame_
pose:
  position:
    x: 0.001433957050538843
    y: 4.901084640986879e-07
    z: 0.0
  orientation:
    x: 0.0
    y: 0.0
    z: 0.00037250378231308773
    w: 1.0
---
header:
  stamp:
    sec: 9
    nanosec: 308000000
  frame_id: ekf_frame_
pose:
  position:
    x: 0.0014339573252895965
    y: 4.901086702828158e-07
    z: 0.0
  orientation:
    x: 0.0
    y: 0.0
    z: 0.0003725037483539437
    w: 1.0
---
header:
  stamp:
    sec: 9
    nanosec: 318000000
  frame_id: ekf_frame_
pose:
  position:
    x: 0.0013978084704777776
    y: 4.6285333284746907e-07
    z: 0.0
  orientation:
    x: 0.0
    y: 0.0
    z: 0.0003663342582538659
    w: 1.0
---
header:
  stamp:
    sec: 9
    nanosec: 318000000
  frame_id: ekf_frame_
pose:
  position:
    x: 0.0013951624100397985
    y: 4.6093579707724845e-07
    z: 0.0
  orientation:
    x: 0.0
    y: 0.0
    z: 0.00036925623812384984
    w: 1.0
---
header:
  stamp:
    sec: 9
    nanosec: 328000000
  frame_id: ekf_frame_
pose:
  position:
    x: 0.0013068385782267693
    y: 3.9399466517472334e-07
    z: 0.0
  orientation:
    x: 0.0
    y: 0.0
    z: 0.00035928844096030026
    w: 1.0
---
header:
  stamp:
    sec: 9
    nanosec: 338000000
  frame_id: ekf_frame_
pose:
  position:
    x: 0.0013404198916991319
    y: 4.1746595822272773e-07
    z: 0.0
  orientation:
    x: 0.0
    y: 0.0
    z: 0.00037060867022984236
    w: 1.0
---
header:
  stamp:
    sec: 9
    nanosec: 338000000
  frame_id: ekf_frame_
pose:
  position:
    x: 0.001340420129421826
    y: 4.174661367259201e-07
    z: 0.0
  orientation:
    x: 0.0
    y: 0.0
    z: 0.00037060860975382146
    w: 1.0
---
header:
  stamp:
    sec: 9
    nanosec: 348000000
  frame_id: ekf_frame_
pose:
  position:
    x: 0.0013202485111742637
    y: 4.022435066550148e-07
    z: 0.0
  orientation:
    x: 0.0
    y: 0.0
    z: 0.00036916340905101804
    w: 1.0
---
header:
  stamp:
    sec: 9
    nanosec: 358000000
  frame_id: ekf_frame_
pose:
  position:
    x: 0.00132535487757007
    y: 4.0594667420084714e-07
    z: 0.0
  orientation:
    x: 0.0
    y: 0.0
    z: 0.00037160563907827213
    w: 1.0
---
header:
  stamp:
    sec: 9
    nanosec: 368000000
  frame_id: ekf_frame_
pose:
  position:
    x: 0.0013416652763358948
    y: 4.1815655296419017e-07
    z: 0.0
  orientation:
    x: 0.0
    y: 0.0
    z: 0.00037195653824176523
    w: 1.0
---
header:
  stamp:
    sec: 9
    nanosec: 378000000
  frame_id: ekf_frame_
pose:
  position:
    x: 0.001323998130395451
    y: 4.0508348902530847e-07
    z: 0.0
  orientation:
    x: 0.0
    y: 0.0
    z: 0.0003750921534644197
    w: 1.0
---
header:
  stamp:
    sec: 9
    nanosec: 388000000
  frame_id: ekf_frame_
pose:
  position:
    x: 0.0013383692661273518
    y: 4.156482116409052e-07
    z: 0.0
  orientation:
    x: 0.0
    y: 0.0
    z: 0.00036581280989878354
    w: 1.0
---
header:
  stamp:
    sec: 9
    nanosec: 388000000
  frame_id: ekf_frame_
pose:
  position:
    x: 0.0013402750102398265
    y: 4.1709043306598844e-07
    z: 0.0
  orientation:
    x: 0.0
    y: 0.0
    z: 0.0003423559925282067
    w: 1.0
---
header:
  stamp:
    sec: 9
    nanosec: 398000000
  frame_id: ekf_frame_
pose:
  position:
    x: 0.001388045342543933
    y: 4.50074020816168e-07
    z: 0.0
  orientation:
    x: 0.0
    y: 0.0
    z: 0.00034265877685643646
    w: 1.0
---
header:
  stamp:
    sec: 9
    nanosec: 408000000
  frame_id: ekf_frame_
pose:
  position:
    x: 0.0013730186141736038
    y: 4.399781128240213e-07
    z: 0.0
  orientation:
    x: 0.0
    y: 0.0
    z: 0.0003528945702477364
    w: 1.0
---
header:
  stamp:
    sec: 9
    nanosec: 418000000
  frame_id: ekf_frame_
pose:
  position:
    x: 0.0013791163412042143
    y: 4.4429259096716164e-07
    z: 0.0
  orientation:
    x: 0.0
    y: 0.0
    z: 0.0003563405711248509
    w: 1.0
---
header:
  stamp:
    sec: 9
    nanosec: 428000000
  frame_id: ekf_frame_
pose:
  position:
    x: 0.0014095076383448765
    y: 4.6576795556034513e-07
    z: 0.0
  orientation:
    x: 0.0
    y: 0.0
    z: 0.00037357350792641245
    w: 1.0
---
header:
  stamp:
    sec: 9
    nanosec: 428000000
  frame_id: ekf_frame_
pose:
  position:
    x: 0.001413246656769567
    y: 4.685689256558295e-07
    z: 0.0
  orientation:
    x: 0.0
    y: 0.0
    z: 0.0003807075410222089
    w: 1.0
---
header:
  stamp:
    sec: 9
    nanosec: 438000000
  frame_id: ekf_frame_
pose:
  position:
    x: 0.0014640619095331185
    y: 5.069606955793568e-07
    z: 0.0
  orientation:
    x: 0.0
    y: 0.0
    z: 0.0003869851302719963
    w: 1.0
---
header:
  stamp:
    sec: 9
    nanosec: 438000000
  frame_id: ekf_frame_
pose:
  position:
    x: 0.0014640620459351412
    y: 5.069608020709414e-07
    z: 0.0
  orientation:
    x: 0.0
    y: 0.0
    z: 0.0003869850880855017
    w: 1.0
---
header:
  stamp:
    sec: 9
    nanosec: 448000000
  frame_id: ekf_frame_
pose:
  position:
    x: 0.0014222755238414056
    y: 4.743013585707972e-07
    z: 0.0
  orientation:
    x: 0.0
    y: 0.0
    z: 0.00038699450284562065
    w: 1.0
---
header:
  stamp:
    sec: 9
    nanosec: 458000000
  frame_id: ekf_frame_
pose:
  position:
    x: 0.001469295944606047
    y: 5.094787761992273e-07
    z: 0.0
  orientation:
    x: 0.0
    y: 0.0
    z: 0.0003951139408636312
    w: 1.0
---
header:
  stamp:
    sec: 9
    nanosec: 468000000
  frame_id: ekf_frame_
pose:
  position:
    x: 0.001463682906428198
    y: 5.050043207969751e-07
    z: 0.0
  orientation:
    x: 0.0
    y: 0.0
    z: 0.0003939876655642325
    w: 1.0
---
header:
  stamp:
    sec: 9
    nanosec: 478000000
  frame_id: ekf_frame_
pose:
  position:
    x: 0.0014279519498748613
    y: 4.768845250628427e-07
    z: 0.0
  orientation:
    x: 0.0
    y: 0.0
    z: 0.0003822919629271498
    w: 1.0
---
header:
  stamp:
    sec: 9
    nanosec: 478000000
  frame_id: ekf_frame_
pose:
  position:
    x: 0.0014324026284178184
    y: 4.802916319223236e-07
    z: 0.0
  orientation:
    x: 0.0
    y: 0.0
    z: 0.0003757377959632506
    w: 1.0
---
header:
  stamp:
    sec: 9
    nanosec: 488000000
  frame_id: ekf_frame_
pose:
  position:
    x: 0.0013811887300877897
    y: 4.4115408283008216e-07
    z: 0.0
  orientation:
    x: 0.0
    y: 0.0
    z: 0.0003661302511366962
    w: 1.0
---
header:
  stamp:
    sec: 9
    nanosec: 498000000
  frame_id: ekf_frame_
pose:
  position:
    x: 0.001385008743715202
    y: 4.4394032501939044e-07
    z: 0.0
  orientation:
    x: 0.0
    y: 0.0
    z: 0.00036348051679013446
    w: 1.0
---
header:
  stamp:
    sec: 9
    nanosec: 498000000
  frame_id: ekf_frame_
pose:
  position:
    x: 0.0013979823101257231
    y: 4.5337156168179385e-07
    z: 0.0
  orientation:
    x: 0.0
    y: 0.0
    z: 0.0003754662555419425
    w: 1.0
---
header:
  stamp:
    sec: 9
    nanosec: 508000000
  frame_id: ekf_frame_
pose:
  position:
    x: 0.0013991402742095933
    y: 4.5421816894659926e-07
    z: 0.0
  orientation:
    x: 0.0
    y: 0.0
    z: 0.0003804103919047484
    w: 1.0
---
header:
  stamp:
    sec: 9
    nanosec: 518000000
  frame_id: ekf_frame_
pose:
  position:
    x: 0.0014273666855754408
    y: 4.758014305094921e-07
    z: 0.0
  orientation:
    x: 0.0
    y: 0.0
    z: 0.0003800134989306602
    w: 1.0
---
header:
  stamp:
    sec: 9
    nanosec: 528000000
  frame_id: ekf_frame_
pose:
  position:
    x: 0.0013941870678075951
    y: 4.5078345674668666e-07
    z: 0.0
  orientation:
    x: 0.0
    y: 0.0
    z: 0.0003862172107680476
    w: 1.0
---
header:
  stamp:
    sec: 9
    nanosec: 528000000
  frame_id: ekf_frame_
pose:
  position:
    x: 0.0014100378453544837
    y: 4.630734103292202e-07
    z: 0.0
  orientation:
    x: 0.0
    y: 0.0
    z: 0.00038713184373106015
    w: 1.0
---
header:
  stamp:
    sec: 9
    nanosec: 538000000
  frame_id: ekf_frame_
pose:
  position:
    x: 0.0014253008931151368
    y: 4.748910036138618e-07
    z: 0.0
  orientation:
    x: 0.0
    y: 0.0
    z: 0.00039326765738409913
    w: 1.0
---
header:
  stamp:
    sec: 9
    nanosec: 548000000
  frame_id: ekf_frame_
pose:
  position:
    x: 0.0014295326156349233
    y: 4.784319142494158e-07
    z: 0.0
  orientation:
    x: 0.0
    y: 0.0
    z: 0.0003724156812549091
    w: 1.0
---
header:
  stamp:
    sec: 9
    nanosec: 548000000
  frame_id: ekf_frame_
pose:
  position:
    x: 0.001424199006822654
    y: 4.745658294536603e-07
    z: 0.0
  orientation:
    x: 0.0
    y: 0.0
    z: 0.0003769608535480616
    w: 1.0
---
header:
  stamp:
    sec: 9
    nanosec: 558000000
  frame_id: ekf_frame_
pose:
  position:
    x: 0.0014523675564238293
    y: 4.956200286397004e-07
    z: 0.0
  orientation:
    x: 0.0
    y: 0.0
    z: 0.0003792085816256046
    w: 1.0
---
header:
  stamp:
    sec: 9
    nanosec: 568000000
  frame_id: ekf_frame_
pose:
  position:
    x: 0.0014731205216333475
    y: 5.112130954621921e-07
    z: 0.0
  orientation:
    x: 0.0
    y: 0.0
    z: 0.00036933924543223936
    w: 1.0
---
header:
  stamp:
    sec: 9
    nanosec: 578000000
  frame_id: ekf_frame_
pose:
  position:
    x: 0.0014764780672572569
    y: 5.136423617998056e-07
    z: 0.0
  orientation:
    x: 0.0
    y: 0.0
    z: 0.0003757718942989247
    w: 1.0
---
header:
  stamp:
    sec: 9
    nanosec: 578000000
  frame_id: ekf_frame_
pose:
  position:
    x: 0.0014874494988920623
    y: 5.218879381284259e-07
    z: 0.0
  orientation:
    x: 0.0
    y: 0.0
    z: 0.00036993725564250947
    w: 1.0
---
header:
  stamp:
    sec: 9
    nanosec: 588000000
  frame_id: ekf_frame_
pose:
  position:
    x: 0.0014919387963054133
    y: 5.250549379448703e-07
    z: 0.0
  orientation:
    x: 0.0
    y: 0.0
    z: 0.00036349443280171717
    w: 1.0
---
header:
  stamp:
    sec: 9
    nanosec: 598000000
  frame_id: ekf_frame_
pose:
  position:
    x: 0.001451278749944408
    y: 4.955969641051583e-07
    z: 0.0
  orientation:
    x: 0.0
    y: 0.0
    z: 0.0003621446565357965
    w: 1.0
---
header:
  stamp:
    sec: 9
    nanosec: 608000000
  frame_id: ekf_frame_
pose:
  position:
    x: 0.0014198105389445102
    y: 4.7330223320061285e-07
    z: 0.0
  orientation:
    x: 0.0
    y: 0.0
    z: 0.00037251192469888356
    w: 1.0
---
header:
  stamp:
    sec: 9
    nanosec: 608000000
  frame_id: ekf_frame_
pose:
  position:
    x: 0.001414194127249823
    y: 4.691423184069845e-07
    z: 0.0
  orientation:
    x: 0.0
    y: 0.0
    z: 0.0003809528696108344
    w: 1.0
---
header:
  stamp:
    sec: 9
    nanosec: 618000000
  frame_id: ekf_frame_
pose:
  position:
    x: 0.0014281767779215266
    y: 4.796593285488396e-07
    z: 0.0
  orientation:
    x: 0.0
    y: 0.0
    z: 0.00038564671613894357
    w: 1.0
---
header:
  stamp:
    sec: 9
    nanosec: 628000000
  frame_id: ekf_frame_
pose:
  position:
    x: 0.0014603861674574933
    y: 5.046134553494981e-07
    z: 0.0
  orientation:
    x: 0.0
    y: 0.0
    z: 0.0003854014555170019
    w: 1.0
---
header:
  stamp:
    sec: 9
    nanosec: 638000000
  frame_id: ekf_frame_
pose:
  position:
    x: 0.001327720740233384
    y: 3.978140800431108e-07
    z: 0.0
  orientation:
    x: 0.0
    y: 0.0
    z: 0.0003588960233786659
    w: 1.0
---
header:
  stamp:
    sec: 9
    nanosec: 648000000
  frame_id: ekf_frame_
pose:
  position:
    x: 0.0013234115326369838
    y: 3.949514052493296e-07
    z: 0.0
  orientation:
    x: 0.0
    y: 0.0
    z: 0.0003706106991130512
    w: 1.0
---
header:
  stamp:
    sec: 9
    nanosec: 648000000
  frame_id: ekf_frame_
pose:
  position:
    x: 0.0013226569299755412
    y: 3.9439294452849e-07
    z: 0.0
  orientation:
    x: 0.0
    y: 0.0
    z: 0.0003773289867704445
    w: 1.0
---
header:
  stamp:
    sec: 9
    nanosec: 658000000
  frame_id: ekf_frame_
pose:
  position:
    x: 0.001302842012184443
    y: 3.7959341128233944e-07
    z: 0.0
  orientation:
    x: 0.0
    y: 0.0
    z: 0.00038454978351913155
    w: 1.0
---
header:
  stamp:
    sec: 9
    nanosec: 668000000
  frame_id: ekf_frame_
pose:
  position:
    x: 0.0012778426204086194
    y: 3.60444399764371e-07
    z: 0.0
  orientation:
    x: 0.0
    y: 0.0
    z: 0.00039050069515760244
    w: 1.0
---
header:
  stamp:
    sec: 9
    nanosec: 678000000
  frame_id: ekf_frame_
pose:
  position:
    x: 0.0013316502468142945
    y: 3.999823788089925e-07
    z: 0.0
  orientation:
    x: 0.0
    y: 0.0
    z: 0.000408620191548218
    w: 1.0
---
header:
  stamp:
    sec: 9
    nanosec: 678000000
  frame_id: ekf_frame_
pose:
  position:
    x: 0.0013461423535535517
    y: 4.119692552224009e-07
    z: 0.0
  orientation:
    x: 0.0
    y: 0.0
    z: 0.00041025414597129325
    w: 1.0
---
header:
  stamp:
    sec: 9
    nanosec: 688000000
  frame_id: ekf_frame_
pose:
  position:
    x: 0.0013390307933023745
    y: 4.061341964949361e-07
    z: 0.0
  orientation:
    x: 0.0
    y: 0.0
    z: 0.0004173554583621311
    w: 1.0
---
header:
  stamp:
    sec: 9
    nanosec: 698000000
  frame_id: ekf_frame_
pose:
  position:
    x: 0.0013495972332780435
    y: 4.148385091476968e-07
    z: 0.0
  orientation:
    x: 0.0
    y: 0.0
    z: 0.0004129587829248894
    w: 1.0
---
header:
  stamp:
    sec: 9
    nanosec: 698000000
  frame_id: ekf_frame_
pose:
  position:
    x: 0.0013486871871028461
    y: 4.140852626635161e-07
    z: 0.0
  orientation:
    x: 0.0
    y: 0.0
    z: 0.000409434078311363
    w: 1.0
---
header:
  stamp:
    sec: 9
    nanosec: 708000000
  frame_id: ekf_frame_
pose:
  position:
    x: 0.0013994120373469951
    y: 4.5580484299136814e-07
    z: 0.0
  orientation:
    x: 0.0
    y: 0.0
    z: 0.0004093197368804751
    w: 1.0
---
header:
  stamp:
    sec: 9
    nanosec: 718000000
  frame_id: ekf_frame_
pose:
  position:
    x: 0.001397378050046781
    y: 4.541532352630239e-07
    z: 0.0
  orientation:
    x: 0.0
    y: 0.0
    z: 0.00041423598345647093
    w: 1.0
---
header:
  stamp:
    sec: 9
    nanosec: 728000000
  frame_id: ekf_frame_
pose:
  position:
    x: 0.0014008183481024194
    y: 4.5779847470980425e-07
    z: 0.0
  orientation:
    x: 0.0
    y: 0.0
    z: 0.0003945897285175194
    w: 1.0
---
header:
  stamp:
    sec: 9
    nanosec: 728000000
  frame_id: ekf_frame_
pose:
  position:
    x: 0.001411059382508072
    y: 4.657315621609668e-07
    z: 0.0
  orientation:
    x: 0.0
    y: 0.0
    z: 0.00039567655834406014
    w: 1.0
---
header:
  stamp:
    sec: 9
    nanosec: 728000000
  frame_id: ekf_frame_
pose:
  position:
    x: 0.001411059382531847
    y: 4.6573156217920123e-07
    z: 0.0
  orientation:
    x: 0.0
    y: 0.0
    z: 0.0003956765583460489
    w: 1.0
---
header:
  stamp:
    sec: 9
    nanosec: 738000000
  frame_id: ekf_frame_
pose:
  position:
    x: 0.0013916585776987598
    y: 4.5048480711487086e-07
    z: 0.0
  orientation:
    x: 0.0
    y: 0.0
    z: 0.0003988713147394379
    w: 1.0
---
header:
  stamp:
    sec: 9
    nanosec: 748000000
  frame_id: ekf_frame_
pose:
  position:
    x: 0.001380251916425533
    y: 4.4136011821222107e-07
    z: 0.0
  orientation:
    x: 0.0
    y: 0.0
    z: 0.0003988190138048641
    w: 1.0
---
header:
  stamp:
    sec: 9
    nanosec: 758000000
  frame_id: ekf_frame_
pose:
  position:
    x: 0.001378579809982468
    y: 4.412957872782329e-07
    z: 0.0
  orientation:
    x: 0.0
    y: 0.0
    z: 0.0004175828597611901
    w: 1.0
---
header:
  stamp:
    sec: 9
    nanosec: 768000000
  frame_id: ekf_frame_
pose:
  position:
    x: 0.0013529884897627114
    y: 4.20094039371305e-07
    z: 0.0
  orientation:
    x: 0.0
    y: 0.0
    z: 0.00042573184462945887
    w: 1.0
---
header:
  stamp:
    sec: 9
    nanosec: 768000000
  frame_id: ekf_frame_
pose:
  position:
    x: 0.001352848407934962
    y: 4.1997408869075873e-07
    z: 0.0
  orientation:
    x: 0.0
    y: 0.0
    z: 0.00042604266514841325
    w: 1.0
---
header:
  stamp:
    sec: 9
    nanosec: 778000000
  frame_id: ekf_frame_
pose:
  position:
    x: 0.001369322249078616
    y: 4.338916049720983e-07
    z: 0.0
  orientation:
    x: 0.0
    y: 0.0
    z: 0.00043365652012765854
    w: 1.0
---
header:
  stamp:
    sec: 9
    nanosec: 788000000
  frame_id: ekf_frame_
pose:
  position:
    x: 0.0013476490091094287
    y: 4.1527893794075053e-07
    z: 0.0
  orientation:
    x: 0.0
    y: 0.0
    z: 0.00044385647119422585
    w: 1.0
---
header:
  stamp:
    sec: 9
    nanosec: 798000000
  frame_id: ekf_frame_
pose:
  position:
    x: 0.0012791813958626336
    y: 3.543478138800822e-07
    z: 0.0
  orientation:
    x: 0.0
    y: 0.0
    z: 0.00044323252437314294
    w: 1.0
---
header:
  stamp:
    sec: 9
    nanosec: 798000000
  frame_id: ekf_frame_
pose:
  position:
    x: 0.0012903903225762335
    y: 3.641606226219409e-07
    z: 0.0
  orientation:
    x: 0.0
    y: 0.0
    z: 0.00045117989930988905
    w: 1.0
---
header:
  stamp:
    sec: 9
    nanosec: 808000000
  frame_id: ekf_frame_
pose:
  position:
    x: 0.001275121035681346
    y: 3.5090052318154154e-07
    z: 0.0
  orientation:
    x: 0.0
    y: 0.0
    z: 0.00046416383451225186
    w: 1.0
---
header:
  stamp:
    sec: 9
    nanosec: 818000000
  frame_id: ekf_frame_
pose:
  position:
    x: 0.0012525947089549335
    y: 3.2980219288706914e-07
    z: 0.0
  orientation:
    x: 0.0
    y: 0.0
    z: 0.00046444548375300355
    w: 1.0
---
header:
  stamp:
    sec: 9
    nanosec: 818000000
  frame_id: ekf_frame_
pose:
  position:
    x: 0.0012714385594759998
    y: 3.473060906775393e-07
    z: 0.0
  orientation:
    x: 0.0
    y: 0.0
    z: 0.0004570366631803181
    w: 1.0
---
header:
  stamp:
    sec: 9
    nanosec: 828000000
  frame_id: ekf_frame_
pose:
  position:
    x: 0.0013021949535227467
    y: 3.7553757706862326e-07
    z: 0.0
  orientation:
    x: 0.0
    y: 0.0
    z: 0.0004536218826787011
    w: 1.0
---
header:
  stamp:
    sec: 9
    nanosec: 838000000
  frame_id: ekf_frame_
pose:
  position:
    x: 0.0013217763806435269
    y: 3.9334348700784755e-07
    z: 0.0
  orientation:
    x: 0.0
    y: 0.0
    z: 0.00045035281725237515
    w: 1.0
---
header:
  stamp:
    sec: 9
    nanosec: 848000000
  frame_id: ekf_frame_
pose:
  position:
    x: 0.0012819336395685508
    y: 3.56751650040993e-07
    z: 0.0
  orientation:
    x: 0.0
    y: 0.0
    z: 0.00044212949256781117
    w: 1.0
---
header:
  stamp:
    sec: 9
    nanosec: 848000000
  frame_id: ekf_frame_
pose:
  position:
    x: 0.0012765912155993952
    y: 3.5210909472777086e-07
    z: 0.0
  orientation:
    x: 0.0
    y: 0.0
    z: 0.00044947018402899093
    w: 1.0
---
header:
  stamp:
    sec: 9
    nanosec: 858000000
  frame_id: ekf_frame_
pose:
  position:
    x: 0.0012486790404636306
    y: 3.272874296337178e-07
    z: 0.0
  orientation:
    x: 0.0
    y: 0.0
    z: 0.00044967631877130437
    w: 1.0
---
header:
  stamp:
    sec: 9
    nanosec: 868000000
  frame_id: ekf_frame_
pose:
  position:
    x: 0.0012486055246116194
    y: 3.2722025107087395e-07
    z: 0.0
  orientation:
    x: 0.0
    y: 0.0
    z: 0.00043880638316917426
    w: 1.0
---
header:
  stamp:
    sec: 9
    nanosec: 878000000
  frame_id: ekf_frame_
pose:
  position:
    x: 0.001271997363951221
    y: 3.4767456984990825e-07
    z: 0.0
  orientation:
    x: 0.0
    y: 0.0
    z: 0.0004398838639515759
    w: 1.0
---
header:
  stamp:
    sec: 9
    nanosec: 878000000
  frame_id: ekf_frame_
pose:
  position:
    x: 0.0012617666633274426
    y: 3.3877429507527754e-07
    z: 0.0
  orientation:
    x: 0.0
    y: 0.0
    z: 0.0004477741918991809
    w: 1.0
---
header:
  stamp:
    sec: 9
    nanosec: 878000000
  frame_id: ekf_frame_
pose:
  position:
    x: 0.0012617666632957526
    y: 3.387742950489984e-07
    z: 0.0
  orientation:
    x: 0.0
    y: 0.0
    z: 0.00044777419187630446
    w: 1.0
---
header:
  stamp:
    sec: 9
    nanosec: 888000000
  frame_id: ekf_frame_
pose:
  position:
    x: 0.001304539807025973
    y: 3.775043656733952e-07
    z: 0.0
  orientation:
    x: 0.0
    y: 0.0
    z: 0.0004456333042766948
    w: 1.0
---
header:
  stamp:
    sec: 9
    nanosec: 898000000
  frame_id: ekf_frame_
pose:
  position:
    x: 0.0012687085728654009
    y: 3.4711531609756555e-07
    z: 0.0
  orientation:
    x: 0.0
    y: 0.0
    z: 0.00046073474991795946
    w: 1.0
---
header:
  stamp:
    sec: 9
    nanosec: 908000000
  frame_id: ekf_frame_
pose:
  position:
    x: 0.0012469977631911603
    y: 3.270138730022341e-07
    z: 0.0
  orientation:
    x: 0.0
    y: 0.0
    z: 0.00046498368970049445
    w: 1.0
---
header:
  stamp:
    sec: 9
    nanosec: 908000000
  frame_id: ekf_frame_
pose:
  position:
    x: 0.0012516745502729725
    y: 3.313630588583706e-07
    z: 0.0
  orientation:
    x: 0.0
    y: 0.0
    z: 0.0004828575351185981
    w: 1.0
---
header:
  stamp:
    sec: 9
    nanosec: 918000000
  frame_id: ekf_frame_
pose:
  position:
    x: 0.0012619876095856964
    y: 3.4060540679154434e-07
    z: 0.0
  orientation:
    x: 0.0
    y: 0.0
    z: 0.0005023386807443944
    w: 1.0
---
header:
  stamp:
    sec: 9
    nanosec: 928000000
  frame_id: ekf_frame_
pose:
  position:
    x: 0.0012380163716703048
    y: 3.1606541174425495e-07
    z: 0.0
  orientation:
    x: 0.0
    y: 0.0
    z: 0.0004977984685698365
    w: 1.0
---
header:
  stamp:
    sec: 9
    nanosec: 938000000
  frame_id: ekf_frame_
pose:
  position:
    x: 0.0012430547273024417
    y: 3.2102570016547114e-07
    z: 0.0
  orientation:
    x: 0.0
    y: 0.0
    z: 0.0004939095274374024
    w: 1.0
---
header:
  stamp:
    sec: 9
    nanosec: 938000000
  frame_id: ekf_frame_
pose:
  position:
    x: 0.0012442386341926669
    y: 3.222005383796912e-07
    z: 0.0
  orientation:
    x: 0.0
    y: 0.0
    z: 0.0004885649490875789
    w: 1.0
---
header:
  stamp:
    sec: 9
    nanosec: 948000000
  frame_id: ekf_frame_
pose:
  position:
    x: 0.0012797404210362067
    y: 3.568903939280491e-07
    z: 0.0
  orientation:
    x: 0.0
    y: 0.0
    z: 0.00048427551645217773
    w: 1.0
---
header:
  stamp:
    sec: 9
    nanosec: 948000000
  frame_id: ekf_frame_
pose:
  position:
    x: 0.0012774575450485274
    y: 3.546793476558593e-07
    z: 0.0
  orientation:
    x: 0.0
    y: 0.0
    z: 0.0004828156275547131
    w: 1.0
---
header:
  stamp:
    sec: 9
    nanosec: 958000000
  frame_id: ekf_frame_
pose:
  position:
    x: 0.0013274303104907857
    y: 4.024674079156659e-07
    z: 0.0
  orientation:
    x: 0.0
    y: 0.0
    z: 0.0004882477623096598
    w: 1.0
---
header:
  stamp:
    sec: 9
    nanosec: 968000000
  frame_id: ekf_frame_
pose:
  position:
    x: 0.0013179299461787116
    y: 3.9289831092309755e-07
    z: 0.0
  orientation:
    x: 0.0
    y: 0.0
    z: 0.0004861441878254172
    w: 1.0
---
header:
  stamp:
    sec: 9
    nanosec: 978000000
  frame_id: ekf_frame_
pose:
  position:
    x: 0.0013124476532102626
    y: 3.876029224499582e-07
    z: 0.0
  orientation:
    x: 0.0
    y: 0.0
    z: 0.0004898762398142243
    w: 1.0
---
header:
  stamp:
    sec: 9
    nanosec: 988000000
  frame_id: ekf_frame_
pose:
  position:
    x: 0.001330958582866119
    y: 4.0581130126198815e-07
    z: 0.0
  orientation:
    x: 0.0
    y: 0.0
    z: 0.0004880447176753973
    w: 1.0
---
header:
  stamp:
    sec: 9
    nanosec: 988000000
  frame_id: ekf_frame_
pose:
  position:
    x: 0.0013309589435936927
    y: 4.058116559318936e-07
    z: 0.0
  orientation:
    x: 0.0
    y: 0.0
    z: 0.0004880446731946376
    w: 1.0
---
header:
  stamp:
    sec: 9
    nanosec: 998000000
  frame_id: ekf_frame_
pose:
  position:
    x: 0.0013090861966687296
    y: 3.8378881387603155e-07
    z: 0.0
  orientation:
    x: 0.0
    y: 0.0
    z: 0.0004785530549892397
    w: 1.0
---
header:
  stamp:
    sec: 9
    nanosec: 998000000
  frame_id: ekf_frame_
pose:
  position:
    x: 0.00129356864170286
    y: 3.6903036928840104e-07
    z: 0.0
  orientation:
    x: 0.0
    y: 0.0
    z: 0.00047832989020279315
    w: 1.0
---
header:
  stamp:
    sec: 10
    nanosec: 8000000
  frame_id: ekf_frame_
pose:
  position:
    x: 0.0012096095542453468
    y: 2.9013591397554423e-07
    z: 0.0
  orientation:
    x: 0.0
    y: 0.0
    z: 0.0004959782218583433
    w: 1.0
---
header:
  stamp:
    sec: 10
    nanosec: 18000000
  frame_id: ekf_frame_
pose:
  position:
    x: 0.0012343120339396673
    y: 3.146635789729277e-07
    z: 0.0
  orientation:
    x: 0.0
    y: 0.0
    z: 0.0005044025436508732
    w: 1.0
---
header:
  stamp:
    sec: 10
    nanosec: 28000000
  frame_id: ekf_frame_
pose:
  position:
    x: 0.0012255426806639653
    y: 3.057557597839146e-07
    z: 0.0
  orientation:
    x: 0.0
    y: 0.0
    z: 0.0005033793206588391
    w: 1.0
---
header:
  stamp:
    sec: 10
    nanosec: 38000000
  frame_id: ekf_frame_
pose:
  position:
    x: 0.001252870390871395
    y: 3.3342843612006785e-07
    z: 0.0
  orientation:
    x: 0.0
    y: 0.0
    z: 0.0004949041994252296
    w: 1.0
---
header:
  stamp:
    sec: 10
    nanosec: 38000000
  frame_id: ekf_frame_
pose:
  position:
    x: 0.0012454368083965686
    y: 3.260200713984955e-07
    z: 0.0
  orientation:
    x: 0.0
    y: 0.0
    z: 0.0004855675021369881
    w: 1.0
---
header:
  stamp:
    sec: 10
    nanosec: 48000000
  frame_id: ekf_frame_
pose:
  position:
    x: 0.001238815995230075
    y: 3.1933089462319375e-07
    z: 0.0
  orientation:
    x: 0.0
    y: 0.0
    z: 0.00047113104010327987
    w: 1.0
---
header:
  stamp:
    sec: 10
    nanosec: 48000000
  frame_id: ekf_frame_
pose:
  position:
    x: 0.0012388159381754279
    y: 3.193308415291588e-07
    z: 0.0
  orientation:
    x: 0.0
    y: 0.0
    z: 0.00047113111311425696
    w: 1.0
---
header:
  stamp:
    sec: 10
    nanosec: 58000000
  frame_id: ekf_frame_
pose:
  position:
    x: 0.001280050610809332
    y: 3.5770018351030544e-07
    z: 0.0
  orientation:
    x: 0.0
    y: 0.0
    z: 0.0004745383505353825
    w: 1.0
---
header:
  stamp:
    sec: 10
    nanosec: 68000000
  frame_id: ekf_frame_
pose:
  position:
    x: 0.001252610195711213
    y: 3.317931749986152e-07
    z: 0.0
  orientation:
    x: 0.0
    y: 0.0
    z: 0.0004764684390551155
    w: 1.0
---
header:
  stamp:
    sec: 10
    nanosec: 68000000
  frame_id: ekf_frame_
pose:
  position:
    x: 0.001252610186524112
    y: 3.3179316619924886e-07
    z: 0.0
  orientation:
    x: 0.0
    y: 0.0
    z: 0.0004764684085226514
    w: 1.0
---
header:
  stamp:
    sec: 10
    nanosec: 78000000
  frame_id: ekf_frame_
pose:
  position:
    x: 0.0012688394308965725
    y: 3.474186503039658e-07
    z: 0.0
  orientation:
    x: 0.0
    y: 0.0
    z: 0.000473247323936679
    w: 1.0
---
header:
  stamp:
    sec: 10
    nanosec: 88000000
  frame_id: ekf_frame_
pose:
  position:
    x: 0.0012931264160949171
    y: 3.703004549776851e-07
    z: 0.0
  orientation:
    x: 0.0
    y: 0.0
    z: 0.00047490055455135216
    w: 1.0
---
header:
  stamp:
    sec: 10
    nanosec: 88000000
  frame_id: ekf_frame_
pose:
  position:
    x: 0.0012921451630035449
    y: 3.6936843830181227e-07
    z: 0.0
  orientation:
    x: 0.0
    y: 0.0
    z: 0.0004756620011879851
    w: 1.0
---
header:
  stamp:
    sec: 10
    nanosec: 98000000
  frame_id: ekf_frame_
pose:
  position:
    x: 0.001319592062420689
    y: 3.954776226687939e-07
    z: 0.0
  orientation:
    x: 0.0
    y: 0.0
    z: 0.00047281067822493
    w: 1.0
---
header:
  stamp:
    sec: 10
    nanosec: 108000000
  frame_id: ekf_frame_
pose:
  position:
    x: 0.0013006272927608795
    y: 3.774333240081287e-07
    z: 0.0
  orientation:
    x: 0.0
    y: 0.0
    z: 0.0004670066443724726
    w: 1.0
---
header:
  stamp:
    sec: 10
    nanosec: 118000000
  frame_id: ekf_frame_
pose:
  position:
    x: 0.001324548556789144
    y: 3.984460128628223e-07
    z: 0.0
  orientation:
    x: 0.0
    y: 0.0
    z: 0.0004905733978729392
    w: 1.0
---
header:
  stamp:
    sec: 10
    nanosec: 118000000
  frame_id: ekf_frame_
pose:
  position:
    x: 0.0013068357169345596
    y: 3.812750960468528e-07
    z: 0.0
  orientation:
    x: 0.0
    y: 0.0
    z: 0.0005111654672925359
    w: 1.0
---
header:
  stamp:
    sec: 10
    nanosec: 128000000
  frame_id: ekf_frame_
pose:
  position:
    x: 0.001262745431974317
    y: 3.38042734371849e-07
    z: 0.0
  orientation:
    x: 0.0
    y: 0.0
    z: 0.000534095416638639
    w: 1.0
---
header:
  stamp:
    sec: 10
    nanosec: 138000000
  frame_id: ekf_frame_
pose:
  position:
    x: 0.001244476883317991
    y: 3.1821764090618837e-07
    z: 0.0
  orientation:
    x: 0.0
    y: 0.0
    z: 0.0005327979063884281
    w: 1.0
---
header:
  stamp:
    sec: 10
    nanosec: 148000000
  frame_id: ekf_frame_
pose:
  position:
    x: 0.0012644910729856659
    y: 3.4164499798423693e-07
    z: 0.0
  orientation:
    x: 0.0
    y: 0.0
    z: 0.0005055348544993498
    w: 1.0
---
header:
  stamp:
    sec: 10
    nanosec: 158000000
  frame_id: ekf_frame_
pose:
  position:
    x: 0.001298688475285204
    y: 3.7600746728590397e-07
    z: 0.0
  orientation:
    x: 0.0
    y: 0.0
    z: 0.000500898783191112
    w: 1.0
---
header:
  stamp:
    sec: 10
    nanosec: 158000000
  frame_id: ekf_frame_
pose:
  position:
    x: 0.0012986885855040264
    y: 3.7600757631793047e-07
    z: 0.0
  orientation:
    x: 0.0
    y: 0.0
    z: 0.000500898861774753
    w: 1.0
---
header:
  stamp:
    sec: 10
    nanosec: 168000000
  frame_id: ekf_frame_
pose:
  position:
    x: 0.001304337931330948
    y: 3.826347347839626e-07
    z: 0.0
  orientation:
    x: 0.0
    y: 0.0
    z: 0.0005069932436345285
    w: 1.0
---
header:
  stamp:
    sec: 10
    nanosec: 168000000
  frame_id: ekf_frame_
pose:
  position:
    x: 0.0013070727284212637
    y: 3.854522140924085e-07
    z: 0.0
  orientation:
    x: 0.0
    y: 0.0
    z: 0.0004978491408519968
    w: 1.0
---
header:
  stamp:
    sec: 10
    nanosec: 178000000
  frame_id: ekf_frame_
pose:
  position:
    x: 0.0013924329495496699
    y: 4.7169588703128323e-07
    z: 0.0
  orientation:
    x: 0.0
    y: 0.0
    z: 0.000486632696236362
    w: 1.0
---
header:
  stamp:
    sec: 10
    nanosec: 188000000
  frame_id: ekf_frame_
pose:
  position:
    x: 0.0013880861541020054
    y: 4.6760003319241274e-07
    z: 0.0
  orientation:
    x: 0.0
    y: 0.0
    z: 0.00048524764870903024
    w: 1.0
---
header:
  stamp:
    sec: 10
    nanosec: 188000000
  frame_id: ekf_frame_
pose:
  position:
    x: 0.0013880866571494277
    y: 4.676005259942733e-07
    z: 0.0
  orientation:
    x: 0.0
    y: 0.0
    z: 0.00048524759159687946
    w: 1.0
---
header:
  stamp:
    sec: 10
    nanosec: 198000000
  frame_id: ekf_frame_
pose:
  position:
    x: 0.0012503299125818034
    y: 3.301919788984132e-07
    z: 0.0
  orientation:
    x: 0.0
    y: 0.0
    z: 0.00047394772555871566
    w: 1.0
---
header:
  stamp:
    sec: 10
    nanosec: 208000000
  frame_id: ekf_frame_
pose:
  position:
    x: 0.0012545491317818604
    y: 3.3415919987174246e-07
    z: 0.0
  orientation:
    x: 0.0
    y: 0.0
    z: 0.0004739835106774307
    w: 1.0
---
header:
  stamp:
    sec: 10
    nanosec: 218000000
  frame_id: ekf_frame_
pose:
  position:
    x: 0.0012630699364622653
    y: 3.41902188866415e-07
    z: 0.0
  orientation:
    x: 0.0
    y: 0.0
    z: 0.0004651578066484303
    w: 1.0
---
header:
  stamp:
    sec: 10
    nanosec: 218000000
  frame_id: ekf_frame_
pose:
  position:
    x: 0.0012473826239588637
    y: 3.2738184836316516e-07
    z: 0.0
  orientation:
    x: 0.0
    y: 0.0
    z: 0.0004642728265096872
    w: 1.0
---
header:
  stamp:
    sec: 10
    nanosec: 228000000
  frame_id: ekf_frame_
pose:
  position:
    x: 0.001284962827170525
    y: 3.6318314864527233e-07
    z: 0.0
  orientation:
    x: 0.0
    y: 0.0
    z: 0.0004553639317543869
    w: 1.0
---
header:
  stamp:
    sec: 10
    nanosec: 238000000
  frame_id: ekf_frame_
pose:
  position:
    x: 0.0012764393087562533
    y: 3.5542395502094304e-07
    z: 0.0
  orientation:
    x: 0.0
    y: 0.0
    z: 0.0004598933239393938
    w: 1.0
---
header:
  stamp:
    sec: 10
    nanosec: 238000000
  frame_id: ekf_frame_
pose:
  position:
    x: 0.0012887231192735145
    y: 3.6670898637746796e-07
    z: 0.0
  orientation:
    x: 0.0
    y: 0.0
    z: 0.0004629791788827612
    w: 1.0
---
header:
  stamp:
    sec: 10
    nanosec: 248000000
  frame_id: ekf_frame_
pose:
  position:
    x: 0.0012738177177528467
    y: 3.529072101592949e-07
    z: 0.0
  orientation:
    x: 0.0
    y: 0.0
    z: 0.0004678657443973951
    w: 1.0
---
header:
  stamp:
    sec: 10
    nanosec: 258000000
  frame_id: ekf_frame_
pose:
  position:
    x: 0.001296348675745604
    y: 3.739901515948826e-07
    z: 0.0
  orientation:
    x: 0.0
    y: 0.0
    z: 0.00047445381344964245
    w: 1.0
---
header:
  stamp:
    sec: 10
    nanosec: 268000000
  frame_id: ekf_frame_
pose:
  position:
    x: 0.001306383717824889
    y: 3.8357408836273613e-07
    z: 0.0
  orientation:
    x: 0.0
    y: 0.0
    z: 0.00047769420287905483
    w: 1.0
---
header:
  stamp:
    sec: 10
    nanosec: 268000000
  frame_id: ekf_frame_
pose:
  position:
    x: 0.0012964847823973013
    y: 3.7408250203765993e-07
    z: 0.0
  orientation:
    x: 0.0
    y: 0.0
    z: 0.0004767208718129337
    w: 1.0
---
header:
  stamp:
    sec: 10
    nanosec: 278000000
  frame_id: ekf_frame_
pose:
  position:
    x: 0.0013251255204580377
    y: 4.013897319034702e-07
    z: 0.0
  orientation:
    x: 0.0
    y: 0.0
    z: 0.0004813254751219367
    w: 1.0
---
header:
  stamp:
    sec: 10
    nanosec: 288000000
  frame_id: ekf_frame_
pose:
  position:
    x: 0.0012965330111751024
    y: 3.730652182021746e-07
    z: 0.0
  orientation:
    x: 0.0
    y: 0.0
    z: 0.00046665603368934
    w: 1.0
---
header:
  stamp:
    sec: 10
    nanosec: 298000000
  frame_id: ekf_frame_
pose:
  position:
    x: 0.0012776989853314602
    y: 3.5530602041802123e-07
    z: 0.0
  orientation:
    x: 0.0
    y: 0.0
    z: 0.00044895318267958135
    w: 1.0
---
header:
  stamp:
    sec: 10
    nanosec: 308000000
  frame_id: ekf_frame_
pose:
  position:
    x: 0.0013083295153710837
    y: 3.8217741209965944e-07
    z: 0.0
  orientation:
    x: 0.0
    y: 0.0
    z: 0.00044934720949677166
    w: 1.0
---
header:
  stamp:
    sec: 10
    nanosec: 308000000
  frame_id: ekf_frame_
pose:
  position:
    x: 0.0013264691500988908
    y: 3.9841124593866867e-07
    z: 0.0
  orientation:
    x: 0.0
    y: 0.0
    z: 0.00045236063422920926
    w: 1.0
---
header:
  stamp:
    sec: 10
    nanosec: 318000000
  frame_id: ekf_frame_
pose:
  position:
    x: 0.001317523176531132
    y: 3.903767120557584e-07
    z: 0.0
  orientation:
    x: 0.0
    y: 0.0
    z: 0.00045884955270911263
    w: 1.0
---
header:
  stamp:
    sec: 10
    nanosec: 328000000
  frame_id: ekf_frame_
pose:
  position:
    x: 0.0013222430088065545
    y: 3.9470118529532467e-07
    z: 0.0
  orientation:
    x: 0.0
    y: 0.0
    z: 0.0004631920422128222
    w: 1.0
---
header:
  stamp:
    sec: 10
    nanosec: 338000000
  frame_id: ekf_frame_
pose:
  position:
    x: 0.0013152699472774316
    y: 3.8814610398153785e-07
    z: 0.0
  orientation:
    x: 0.0
    y: 0.0
    z: 0.00044929738281834075
    w: 1.0
---
header:
  stamp:
    sec: 10
    nanosec: 338000000
  frame_id: ekf_frame_
pose:
  position:
    x: 0.0013314967679927039
    y: 4.026622406675226e-07
    z: 0.0
  orientation:
    x: 0.0
    y: 0.0
    z: 0.0004453623687058862
    w: 1.0
---
header:
  stamp:
    sec: 10
    nanosec: 348000000
  frame_id: ekf_frame_
pose:
  position:
    x: 0.001331786237877934
    y: 4.029200860629718e-07
    z: 0.0
  orientation:
    x: 0.0
    y: 0.0
    z: 0.00044065482452984274
    w: 1.0
---
header:
  stamp:
    sec: 10
    nanosec: 358000000
  frame_id: ekf_frame_
pose:
  position:
    x: 0.0013457323971265973
    y: 4.1677425959275925e-07
    z: 0.0
  orientation:
    x: 0.0
    y: 0.0
    z: 0.00047072521582671155
    w: 1.0
---
header:
  stamp:
    sec: 10
    nanosec: 358000000
  frame_id: ekf_frame_
pose:
  position:
    x: 0.001347491017041819
    y: 4.1846041840179456e-07
    z: 0.0
  orientation:
    x: 0.0
    y: 0.0
    z: 0.00047275198181602056
    w: 1.0
---
header:
  stamp:
    sec: 10
    nanosec: 368000000
  frame_id: ekf_frame_
pose:
  position:
    x: 0.001412989552928732
    y: 4.79602431604569e-07
    z: 0.0
  orientation:
    x: 0.0
    y: 0.0
    z: 0.000486206259653758
    w: 1.0
---
header:
  stamp:
    sec: 10
    nanosec: 378000000
  frame_id: ekf_frame_
pose:
  position:
    x: 0.0014027941309871844
    y: 4.69717626922731e-07
    z: 0.0
  orientation:
    x: 0.0
    y: 0.0
    z: 0.0004950928575840621
    w: 1.0
---
header:
  stamp:
    sec: 10
    nanosec: 378000000
  frame_id: ekf_frame_
pose:
  position:
    x: 0.0014049976244262506
    y: 4.7189951451336986e-07
    z: 0.0
  orientation:
    x: 0.0
    y: 0.0
    z: 0.0004905133256443519
    w: 1.0
---
header:
  stamp:
    sec: 10
    nanosec: 388000000
  frame_id: ekf_frame_
pose:
  position:
    x: 0.0014747351350817026
    y: 5.403894741160029e-07
    z: 0.0
  orientation:
    x: 0.0
    y: 0.0
    z: 0.0004972773008886401
    w: 1.0
---
header:
  stamp:
    sec: 10
    nanosec: 398000000
  frame_id: ekf_frame_
pose:
  position:
    x: 0.0014291488953534258
    y: 4.959030105348581e-07
    z: 0.0
  orientation:
    x: 0.0
    y: 0.0
    z: 0.0005146614155465085
    w: 1.0
---
header:
  stamp:
    sec: 10
    nanosec: 408000000
  frame_id: ekf_frame_
pose:
  position:
    x: 0.0014883179642271533
    y: 5.59132109843028e-07
    z: 0.0
  orientation:
    x: 0.0
    y: 0.0
    z: 0.0004992033890334119
    w: 1.0
---
header:
  stamp:
    sec: 10
    nanosec: 408000000
  frame_id: ekf_frame_
pose:
  position:
    x: 0.0015014926732150882
    y: 5.721176628746923e-07
    z: 0.0
  orientation:
    x: 0.0
    y: 0.0
    z: 0.000501054557708696
    w: 1.0
---
header:
  stamp:
    sec: 10
    nanosec: 418000000
  frame_id: ekf_frame_
pose:
  position:
    x: 0.0015233909619883014
    y: 5.940644399600464e-07
    z: 0.0
  orientation:
    x: 0.0
    y: 0.0
    z: 0.0005026927225788811
    w: 1.0
---
header:
  stamp:
    sec: 10
    nanosec: 428000000
  frame_id: ekf_frame_
pose:
  position:
    x: 0.0015560445280038229
    y: 6.265236847433828e-07
    z: 0.0
  orientation:
    x: 0.0
    y: 0.0
    z: 0.0005060414602925143
    w: 1.0
---
header:
  stamp:
    sec: 10
    nanosec: 438000000
  frame_id: ekf_frame_
pose:
  position:
    x: 0.0015282167051388084
    y: 5.981562776309388e-07
    z: 0.0
  orientation:
    x: 0.0
    y: 0.0
    z: 0.0005022378792243407
    w: 1.0
---
header:
  stamp:
    sec: 10
    nanosec: 448000000
  frame_id: ekf_frame_
pose:
  position:
    x: 0.001523523535996552
    y: 5.934420579780159e-07
    z: 0.0
  orientation:
    x: 0.0
    y: 0.0
    z: 0.000503087830591371
    w: 1.0
---
header:
  stamp:
    sec: 10
    nanosec: 448000000
  frame_id: ekf_frame_
pose:
  position:
