header:
  stamp:
    sec: 43
    nanosec: 714000000
  frame_id: ekf_frame_
pose:
  position:
    x: 0.00886262743394267
    y: 1.3766515052128026e-05
    z: 0.0
  orientation:
    x: 0.0
    y: 0.0
    z: 0.0009460869736901027
    w: 1.0
---
header:
  stamp:
    sec: 43
    nanosec: 724000000
  frame_id: ekf_frame_
pose:
  position:
    x: 0.008777711961830944
    y: 1.360475020144655e-05
    z: 0.0
  orientation:
    x: 0.0
    y: 0.0
    z: 0.000941269776240171
    w: 1.0
---
header:
  stamp:
    sec: 43
    nanosec: 734000000
  frame_id: ekf_frame_
pose:
  position:
    x: 0.008758013619114042
    y: 1.3567816840807485e-05
    z: 0.0
  orientation:
    x: 0.0
    y: 0.0
    z: 0.0009445583066461195
    w: 1.0
---
header:
  stamp:
    sec: 43
    nanosec: 744000000
  frame_id: ekf_frame_
pose:
  position:
    x: 0.008762646177291337
    y: 1.3576574962089663e-05
    z: 0.0
  orientation:
    x: 0.0
    y: 0.0
    z: 0.0009429414850435296
    w: 1.0
---
header:
  stamp:
    sec: 43
    nanosec: 744000000
  frame_id: ekf_frame_
pose:
  position:
    x: 0.008764183499528379
    y: 1.3579481089626724e-05
    z: 0.0
  orientation:
    x: 0.0
    y: 0.0
    z: 0.0009387585882147629
    w: 1.0
---
header:
  stamp:
    sec: 43
    nanosec: 744000000
  frame_id: ekf_frame_
pose:
  position:
    x: 0.008764183499509312
    y: 1.3579481089590598e-05
    z: 0.0
  orientation:
    x: 0.0
    y: 0.0
    z: 0.0009387585882179954
    w: 1.0
---
header:
  stamp:
    sec: 43
    nanosec: 754000000
  frame_id: ekf_frame_
pose:
  position:
    x: 0.008790624575704632
    y: 1.362926406428934e-05
    z: 0.0
  orientation:
    x: 0.0
    y: 0.0
    z: 0.0009375155661630492
    w: 1.0
---
header:
  stamp:
    sec: 43
    nanosec: 764000000
  frame_id: ekf_frame_
pose:
  position:
    x: 0.008775153295379437
    y: 1.3600680075476674e-05
    z: 0.0
  orientation:
    x: 0.0
    y: 0.0
    z: 0.0009446869314554166
    w: 1.0
---
header:
  stamp:
    sec: 43
    nanosec: 774000000
  frame_id: ekf_frame_
pose:
  position:
    x: 0.008776841348148039
    y: 1.3603878264692829e-05
    z: 0.0
  orientation:
    x: 0.0
    y: 0.0
    z: 0.0009443601077179882
    w: 1.0
---
header:
  stamp:
    sec: 43
    nanosec: 784000000
  frame_id: ekf_frame_
pose:
  position:
    x: 0.00880224917174543
    y: 1.3651711231550934e-05
    z: 0.0
  orientation:
    x: 0.0
    y: 0.0
    z: 0.0009426237233978692
    w: 1.0
---
header:
  stamp:
    sec: 43
    nanosec: 794000000
  frame_id: ekf_frame_
pose:
  position:
    x: 0.008804023260133449
    y: 1.3655211307500591e-05
    z: 0.0
  orientation:
    x: 0.0
    y: 0.0
    z: 0.0009472832537974163
    w: 1.0
---
header:
  stamp:
    sec: 43
    nanosec: 794000000
  frame_id: ekf_frame_
pose:
  position:
    x: 0.008820841789390462
    y: 1.3687011763201022e-05
    z: 0.0
  orientation:
    x: 0.0
    y: 0.0
    z: 0.0009524410570214762
    w: 1.0
---
header:
  stamp:
    sec: 43
    nanosec: 804000000
  frame_id: ekf_frame_
pose:
  position:
    x: 0.00880269370802287
    y: 1.365289805310611e-05
    z: 0.0
  orientation:
    x: 0.0
    y: 0.0
    z: 0.0009631633653812386
    w: 1.0
---
header:
  stamp:
    sec: 43
    nanosec: 814000000
  frame_id: ekf_frame_
pose:
  position:
    x: 0.008809497244944313
    y: 1.3666080995200834e-05
    z: 0.0
  orientation:
    x: 0.0
    y: 0.0
    z: 0.0009600337125851327
    w: 1.0
---
header:
  stamp:
    sec: 43
    nanosec: 824000000
  frame_id: ekf_frame_
pose:
  position:
    x: 0.008789883341463993
    y: 1.3628430177757235e-05
    z: 0.0
  orientation:
    x: 0.0
    y: 0.0
    z: 0.0009607640826503359
    w: 1.0
---
header:
  stamp:
    sec: 43
    nanosec: 824000000
  frame_id: ekf_frame_
pose:
  position:
    x: 0.008837428331934941
    y: 1.3719850562798327e-05
    z: 0.0
  orientation:
    x: 0.0
    y: 0.0
    z: 0.0009654555099270816
    w: 1.0
---
header:
  stamp:
    sec: 43
    nanosec: 834000000
  frame_id: ekf_frame_
pose:
  position:
    x: 0.008840716680099983
    y: 1.3726167109473371e-05
    z: 0.0
  orientation:
    x: 0.0
    y: 0.0
    z: 0.0009753193301087921
    w: 1.0
---
header:
  stamp:
    sec: 43
    nanosec: 844000000
  frame_id: ekf_frame_
pose:
  position:
    x: 0.008862545421324475
    y: 1.3768183377848477e-05
    z: 0.0
  orientation:
    x: 0.0
    y: 0.0
    z: 0.0009847897224875622
    w: 1.0
---
header:
  stamp:
    sec: 43
    nanosec: 854000000
  frame_id: ekf_frame_
pose:
  position:
    x: 0.008893922725168342
    y: 1.3829947982883101e-05
    z: 0.0
  orientation:
    x: 0.0
    y: 0.0
    z: 0.0009859505219220728
    w: 1.0
---
header:
  stamp:
    sec: 43
    nanosec: 864000000
  frame_id: ekf_frame_
pose:
  position:
    x: 0.008841931702113597
    y: 1.3727053856808023e-05
    z: 0.0
  orientation:
    x: 0.0
    y: 0.0
    z: 0.0009723876844131568
    w: 1.0
---
header:
  stamp:
    sec: 43
    nanosec: 864000000
  frame_id: ekf_frame_
pose:
  position:
    x: 0.008854487357391179
    y: 1.3751566988516583e-05
    z: 0.0
  orientation:
    x: 0.0
    y: 0.0
    z: 0.000959925529542626
    w: 1.0
---
header:
  stamp:
    sec: 43
    nanosec: 874000000
  frame_id: ekf_frame_
pose:
  position:
    x: 0.008824153315587004
    y: 1.3693330200535806e-05
    z: 0.0
  orientation:
    x: 0.0
    y: 0.0
    z: 0.0009547948672226756
    w: 1.0
---
header:
  stamp:
    sec: 43
    nanosec: 884000000
  frame_id: ekf_frame_
pose:
  position:
    x: 0.0087668127782027
    y: 1.3583758896222026e-05
    z: 0.0
  orientation:
    x: 0.0
    y: 0.0
    z: 0.0009461650273950556
    w: 1.0
---
header:
  stamp:
    sec: 43
    nanosec: 894000000
  frame_id: ekf_frame_
pose:
  position:
    x: 0.008922714033529162
    y: 1.3880775495116561e-05
    z: 0.0
  orientation:
    x: 0.0
    y: 0.0
    z: 0.000935969204960179
    w: 1.0
---
header:
  stamp:
    sec: 43
    nanosec: 904000000
  frame_id: ekf_frame_
pose:
  position:
    x: 0.008908137448760659
    y: 1.3853472085320013e-05
    z: 0.0
  orientation:
    x: 0.0
    y: 0.0
    z: 0.0009299972917254408
    w: 1.0
---
header:
  stamp:
    sec: 43
    nanosec: 914000000
  frame_id: ekf_frame_
pose:
  position:
    x: 0.00890338232366938
    y: 1.3844434295497197e-05
    z: 0.0
  orientation:
    x: 0.0
    y: 0.0
    z: 0.0009434774149907121
    w: 1.0
---
header:
  stamp:
    sec: 43
    nanosec: 914000000
  frame_id: ekf_frame_
pose:
  position:
    x: 0.008927418420222627
    y: 1.388984698201857e-05
    z: 0.0
  orientation:
    x: 0.0
    y: 0.0
    z: 0.000948419211624703
    w: 1.0
---
header:
  stamp:
    sec: 43
    nanosec: 924000000
  frame_id: ekf_frame_
pose:
  position:
    x: 0.008853975240626632
    y: 1.375027609584676e-05
    z: 0.0
  orientation:
    x: 0.0
    y: 0.0
    z: 0.0009386853784236618
    w: 1.0
---
header:
  stamp:
    sec: 43
    nanosec: 934000000
  frame_id: ekf_frame_
pose:
  position:
    x: 0.008933015561318761
    y: 1.3901854690627549e-05
    z: 0.0
  orientation:
    x: 0.0
    y: 0.0
    z: 0.0009196635502443482
    w: 1.0
---
header:
  stamp:
    sec: 43
    nanosec: 944000000
  frame_id: ekf_frame_
pose:
  position:
    x: 0.008918889306776291
    y: 1.3875979799008183e-05
    z: 0.0
  orientation:
    x: 0.0
    y: 0.0
    z: 0.0009199527933773976
    w: 1.0
---
header:
  stamp:
    sec: 43
    nanosec: 954000000
  frame_id: ekf_frame_
pose:
  position:
    x: 0.008916805634014617
    y: 1.387214350267886e-05
    z: 0.0
  orientation:
    x: 0.0
    y: 0.0
    z: 0.0009191843786663427
    w: 1.0
---
header:
  stamp:
    sec: 43
    nanosec: 964000000
  frame_id: ekf_frame_
pose:
  position:
    x: 0.008956884194817365
    y: 1.3944704207776426e-05
    z: 0.0
  orientation:
    x: 0.0
    y: 0.0
    z: 0.0009309344155536865
    w: 1.0
---
header:
  stamp:
    sec: 43
    nanosec: 964000000
  frame_id: ekf_frame_
pose:
  position:
    x: 0.009015140642803319
    y: 1.4054376500481661e-05
    z: 0.0
  orientation:
    x: 0.0
    y: 0.0
    z: 0.0009212820253957269
    w: 1.0
---
header:
  stamp:
    sec: 43
    nanosec: 974000000
  frame_id: ekf_frame_
pose:
  position:
    x: 0.008957267711221682
    y: 1.3946800080292645e-05
    z: 0.0
  orientation:
    x: 0.0
    y: 0.0
    z: 0.0009102942296006162
    w: 1.0
---
header:
  stamp:
    sec: 43
    nanosec: 984000000
  frame_id: ekf_frame_
pose:
  position:
    x: 0.008983379272586776
    y: 1.3993690276886353e-05
    z: 0.0
  orientation:
    x: 0.0
    y: 0.0
    z: 0.000913015719816285
    w: 1.0
---
header:
  stamp:
    sec: 43
    nanosec: 994000000
  frame_id: ekf_frame_
pose:
  position:
    x: 0.008993338264608445
    y: 1.4011905742439202e-05
    z: 0.0
  orientation:
    x: 0.0
    y: 0.0
    z: 0.0009121169873244492
    w: 1.0
---
header:
  stamp:
    sec: 44
    nanosec: 4000000
  frame_id: ekf_frame_
pose:
  position:
    x: 0.008985034305855531
    y: 1.3997199290392076e-05
    z: 0.0
  orientation:
    x: 0.0
    y: 0.0
    z: 0.0009321207945067679
    w: 1.0
---
header:
  stamp:
    sec: 44
    nanosec: 4000000
  frame_id: ekf_frame_
pose:
  position:
    x: 0.009010749308279114
    y: 1.404564362747417e-05
    z: 0.0
  orientation:
    x: 0.0
    y: 0.0
    z: 0.0009273895519545033
    w: 1.0
---
header:
  stamp:
    sec: 44
    nanosec: 14000000
  frame_id: ekf_frame_
pose:
  position:
    x: 0.009007114811926864
    y: 1.4038882908440103e-05
    z: 0.0
  orientation:
    x: 0.0
    y: 0.0
    z: 0.0009290160392904842
    w: 1.0
---
header:
  stamp:
    sec: 44
    nanosec: 24000000
  frame_id: ekf_frame_
pose:
  position:
    x: 0.008991028358845864
    y: 1.400909526755157e-05
    z: 0.0
  orientation:
    x: 0.0
    y: 0.0
    z: 0.0009345606002949207
    w: 1.0
---
header:
  stamp:
    sec: 44
    nanosec: 24000000
  frame_id: ekf_frame_
pose:
  position:
    x: 0.008987328229721592
    y: 1.4002179305958404e-05
    z: 0.0
  orientation:
    x: 0.0
    y: 0.0
    z: 0.0009231325509037442
    w: 1.0
---
header:
  stamp:
    sec: 44
    nanosec: 34000000
  frame_id: ekf_frame_
pose:
  position:
    x: 0.008965173379786645
    y: 1.3961724709326166e-05
    z: 0.0
  orientation:
    x: 0.0
    y: 0.0
    z: 0.0009047122798056559
    w: 1.0
---
header:
  stamp:
    sec: 44
    nanosec: 44000000
  frame_id: ekf_frame_
pose:
  position:
    x: 0.0089993440407259
    y: 1.4023417509667465e-05
    z: 0.0
  orientation:
    x: 0.0
    y: 0.0
    z: 0.0009029806852842846
    w: 1.0
---
header:
  stamp:
    sec: 44
    nanosec: 54000000
  frame_id: ekf_frame_
pose:
  position:
    x: 0.009007852610466166
    y: 1.4038700603886271e-05
    z: 0.0
  orientation:
    x: 0.0
    y: 0.0
    z: 0.0009094369670014211
    w: 1.0
---
header:
  stamp:
    sec: 44
    nanosec: 54000000
  frame_id: ekf_frame_
pose:
  position:
    x: 0.009039364250488536
    y: 1.4096016349791585e-05
    z: 0.0
  orientation:
    x: 0.0
    y: 0.0
    z: 0.0009135399920649822
    w: 1.0
---
header:
  stamp:
    sec: 44
    nanosec: 64000000
  frame_id: ekf_frame_
pose:
  position:
    x: 0.009046155221122542
    y: 1.4108002231430465e-05
    z: 0.0
  orientation:
    x: 0.0
    y: 0.0
    z: 0.0009232636412556307
    w: 1.0
---
header:
  stamp:
    sec: 44
    nanosec: 74000000
  frame_id: ekf_frame_
pose:
  position:
    x: 0.009043314410960686
    y: 1.4102731499566744e-05
    z: 0.0
  orientation:
    x: 0.0
    y: 0.0
    z: 0.0009215007235664792
    w: 1.0
---
header:
  stamp:
    sec: 44
    nanosec: 84000000
  frame_id: ekf_frame_
pose:
  position:
    x: 0.009017125427808734
    y: 1.4054464869667859e-05
    z: 0.0
  orientation:
    x: 0.0
    y: 0.0
    z: 0.0009221463591140934
    w: 1.0
---
header:
  stamp:
    sec: 44
    nanosec: 84000000
  frame_id: ekf_frame_
pose:
  position:
    x: 0.008903936341813506
    y: 1.3846010018992107e-05
    z: 0.0
  orientation:
    x: 0.0
    y: 0.0
    z: 0.0009289252654411568
    w: 1.0
---
header:
  stamp:
    sec: 44
    nanosec: 94000000
  frame_id: ekf_frame_
pose:
  position:
    x: 0.00883986131652134
    y: 1.3728892931292112e-05
    z: 0.0
  orientation:
    x: 0.0
    y: 0.0
    z: 0.000948661261008524
    w: 1.0
---
header:
  stamp:
    sec: 44
    nanosec: 104000000
  frame_id: ekf_frame_
pose:
  position:
    x: 0.008849002034527702
    y: 1.3746241781663462e-05
    z: 0.0
  orientation:
    x: 0.0
    y: 0.0
    z: 0.0009580458253038514
    w: 1.0
---
header:
  stamp:
    sec: 44
    nanosec: 114000000
  frame_id: ekf_frame_
pose:
  position:
    x: 0.008848792501538836
    y: 1.3745840282611382e-05
    z: 0.0
  orientation:
    x: 0.0
    y: 0.0
    z: 0.0009596975899450977
    w: 1.0
---
header:
  stamp:
    sec: 44
    nanosec: 124000000
  frame_id: ekf_frame_
pose:
  position:
    x: 0.00883187957564697
    y: 1.3713360127182341e-05
    z: 0.0
  orientation:
    x: 0.0
    y: 0.0
    z: 0.0009642675359406473
    w: 1.0
---
header:
  stamp:
    sec: 44
    nanosec: 124000000
  frame_id: ekf_frame_
pose:
  position:
    x: 0.00887092263337233
    y: 1.3789156237922313e-05
    z: 0.0
  orientation:
    x: 0.0
    y: 0.0
    z: 0.0009602015482712829
    w: 1.0
---
header:
  stamp:
    sec: 44
    nanosec: 134000000
  frame_id: ekf_frame_
pose:
  position:
    x: 0.008862032985903373
    y: 1.377210340367898e-05
    z: 0.0
  orientation:
    x: 0.0
    y: 0.0
    z: 0.000960868233411662
    w: 1.0
---
header:
  stamp:
    sec: 44
    nanosec: 144000000
  frame_id: ekf_frame_
pose:
  position:
    x: 0.008871702593437098
    y: 1.379065407008379e-05
    z: 0.0
  orientation:
    x: 0.0
    y: 0.0
    z: 0.0009636660928323594
    w: 1.0
---
header:
  stamp:
    sec: 44
    nanosec: 154000000
  frame_id: ekf_frame_
pose:
  position:
    x: 0.008869963631087394
    y: 1.3787302494917006e-05
    z: 0.0
  orientation:
    x: 0.0
    y: 0.0
    z: 0.0009590628162003052
    w: 1.0
---
header:
  stamp:
    sec: 44
    nanosec: 164000000
  frame_id: ekf_frame_
pose:
  position:
    x: 0.008814112417052827
    y: 1.3681017860797754e-05
    z: 0.0
  orientation:
    x: 0.0
    y: 0.0
    z: 0.0009659532987390924
    w: 1.0
---
header:
  stamp:
    sec: 44
    nanosec: 174000000
  frame_id: ekf_frame_
pose:
  position:
    x: 0.008771057318458116
    y: 1.3596484790241948e-05
    z: 0.0
  orientation:
    x: 0.0
    y: 0.0
    z: 0.0009507484379748396
    w: 1.0
---
header:
  stamp:
    sec: 44
    nanosec: 174000000
  frame_id: ekf_frame_
pose:
  position:
    x: 0.008811754510198156
    y: 1.3673243683581485e-05
    z: 0.0
  orientation:
    x: 0.0
    y: 0.0
    z: 0.0009546930757381479
    w: 1.0
---
header:
  stamp:
    sec: 44
    nanosec: 184000000
  frame_id: ekf_frame_
pose:
  position:
    x: 0.00881245917261054
    y: 1.3674645944364559e-05
    z: 0.0
  orientation:
    x: 0.0
    y: 0.0
    z: 0.0009577043794537826
    w: 1.0
---
header:
  stamp:
    sec: 44
    nanosec: 194000000
  frame_id: ekf_frame_
pose:
  position:
    x: 0.00874702910812177
    y: 1.3549422232038033e-05
    z: 0.0
  orientation:
    x: 0.0
    y: 0.0
    z: 0.0009571725913136154
    w: 1.0
---
header:
  stamp:
    sec: 44
    nanosec: 204000000
  frame_id: ekf_frame_
pose:
  position:
    x: 0.0087663058056631
    y: 1.3586547878666189e-05
    z: 0.0
  orientation:
    x: 0.0
    y: 0.0
    z: 0.0009534122091304545
    w: 1.0
---
header:
  stamp:
    sec: 44
    nanosec: 214000000
  frame_id: ekf_frame_
pose:
  position:
    x: 0.008767875246790504
    y: 1.3589539642889648e-05
    z: 0.0
  orientation:
    x: 0.0
    y: 0.0
    z: 0.0009593125560227819
    w: 1.0
---
header:
  stamp:
    sec: 44
    nanosec: 224000000
  frame_id: ekf_frame_
pose:
  position:
    x: 0.008778182678936297
    y: 1.3609299229928778e-05
    z: 0.0
  orientation:
    x: 0.0
    y: 0.0
    z: 0.0009551476338270901
    w: 1.0
---
header:
  stamp:
    sec: 44
    nanosec: 234000000
  frame_id: ekf_frame_
pose:
  position:
    x: 0.008771991233363132
    y: 1.3597491976739526e-05
    z: 0.0
  orientation:
    x: 0.0
    y: 0.0
    z: 0.0009555202817955957
    w: 1.0
---
header:
  stamp:
    sec: 44
    nanosec: 244000000
  frame_id: ekf_frame_
pose:
  position:
    x: 0.008809765560866475
    y: 1.366837119194841e-05
    z: 0.0
  orientation:
    x: 0.0
    y: 0.0
    z: 0.0009792735693034127
    w: 1.0
---
header:
  stamp:
    sec: 44
    nanosec: 244000000
  frame_id: ekf_frame_
pose:
  position:
    x: 0.008786485878687345
    y: 1.3622259910374087e-05
    z: 0.0
  orientation:
    x: 0.0
    y: 0.0
    z: 0.0009745048567063546
    w: 1.0
---
header:
  stamp:
    sec: 44
    nanosec: 254000000
  frame_id: ekf_frame_
pose:
  position:
    x: 0.008776711186919493
    y: 1.3603208844106119e-05
    z: 0.0
  orientation:
    x: 0.0
    y: 0.0
    z: 0.00097686299541338
    w: 1.0
---
header:
  stamp:
    sec: 44
    nanosec: 264000000
  frame_id: ekf_frame_
pose:
  position:
    x: 0.00881651869429963
    y: 1.3681232748540444e-05
    z: 0.0
  orientation:
    x: 0.0
    y: 0.0
    z: 0.0009731143656662004
    w: 1.0
---
header:
  stamp:
    sec: 44
    nanosec: 264000000
  frame_id: ekf_frame_
pose:
  position:
    x: 0.008787597257018291
    y: 1.362507918303428e-05
    z: 0.0
  orientation:
    x: 0.0
    y: 0.0
    z: 0.0009747206753664825
    w: 1.0
---
header:
  stamp:
    sec: 44
    nanosec: 274000000
  frame_id: ekf_frame_
pose:
  position:
    x: 0.008826912451978605
    y: 1.37010930761245e-05
    z: 0.0
  orientation:
    x: 0.0
    y: 0.0
    z: 0.0009849723927249923
    w: 1.0
---
header:
  stamp:
    sec: 44
    nanosec: 284000000
  frame_id: ekf_frame_
pose:
  position:
    x: 0.00878222251496459
    y: 1.3613571834345405e-05
    z: 0.0
  orientation:
    x: 0.0
    y: 0.0
    z: 0.0009894913938518668
    w: 1.0
---
header:
  stamp:
    sec: 44
    nanosec: 294000000
  frame_id: ekf_frame_
pose:
  position:
    x: 0.008770325382400428
    y: 1.358994281476125e-05
    z: 0.0
  orientation:
    x: 0.0
    y: 0.0
    z: 0.0009864069003013222
    w: 1.0
---
header:
  stamp:
    sec: 44
    nanosec: 294000000
  frame_id: ekf_frame_
pose:
  position:
    x: 0.008761785877884813
    y: 1.3573095896116428e-05
    z: 0.0
  orientation:
    x: 0.0
    y: 0.0
    z: 0.0009819856946883285
    w: 1.0
---
header:
  stamp:
    sec: 44
    nanosec: 304000000
  frame_id: ekf_frame_
pose:
  position:
    x: 0.00877122120249727
    y: 1.3591543604632803e-05
    z: 0.0
  orientation:
    x: 0.0
    y: 0.0
    z: 0.0009814315803559639
    w: 1.0
---
header:
  stamp:
    sec: 44
    nanosec: 314000000
  frame_id: ekf_frame_
pose:
  position:
    x: 0.00874795705810098
    y: 1.3545612585240783e-05
    z: 0.0
  orientation:
    x: 0.0
    y: 0.0
    z: 0.0009725632518585136
    w: 1.0
---
header:
  stamp:
    sec: 44
    nanosec: 324000000
  frame_id: ekf_frame_
pose:
  position:
    x: 0.008766736998314225
    y: 1.3582075725139651e-05
    z: 0.0
  orientation:
    x: 0.0
    y: 0.0
    z: 0.0009773706861911865
    w: 1.0
---
header:
  stamp:
    sec: 44
    nanosec: 334000000
  frame_id: ekf_frame_
pose:
  position:
    x: 0.00881350805052165
    y: 1.3673513273487077e-05
    z: 0.0
  orientation:
    x: 0.0
    y: 0.0
    z: 0.0009790700541492962
    w: 1.0
---
header:
  stamp:
    sec: 44
    nanosec: 334000000
  frame_id: ekf_frame_
pose:
  position:
    x: 0.008849113848395592
    y: 1.3743319911305187e-05
    z: 0.0
  orientation:
    x: 0.0
    y: 0.0
    z: 0.0009798695348091498
    w: 1.0
---
header:
  stamp:
    sec: 44
    nanosec: 344000000
  frame_id: ekf_frame_
pose:
  position:
    x: 0.008862308148500829
    y: 1.3769122575723898e-05
    z: 0.0
  orientation:
    x: 0.0
    y: 0.0
    z: 0.0009833817709343298
    w: 1.0
---
header:
  stamp:
    sec: 44
    nanosec: 354000000
  frame_id: ekf_frame_
pose:
  position:
    x: 0.008876441465173439
    y: 1.379691947756191e-05
    z: 0.0
  orientation:
    x: 0.0
    y: 0.0
    z: 0.0009904249191844204
    w: 1.0
---
header:
  stamp:
    sec: 44
    nanosec: 364000000
  frame_id: ekf_frame_
pose:
  position:
    x: 0.008826827851622292
    y: 1.3698610002305119e-05
    z: 0.0
  orientation:
    x: 0.0
    y: 0.0
    z: 0.0009900096134440016
    w: 1.0
---
header:
  stamp:
    sec: 44
    nanosec: 364000000
  frame_id: ekf_frame_
pose:
  position:
    x: 0.008845724579742795
    y: 1.3736026243672593e-05
    z: 0.0
  orientation:
    x: 0.0
    y: 0.0
    z: 0.000990165270751316
    w: 1.0
---
header:
  stamp:
    sec: 44
    nanosec: 374000000
  frame_id: ekf_frame_
pose:
  position:
    x: 0.008875367886082057
    y: 1.3794572865146701e-05
    z: 0.0
  orientation:
    x: 0.0
    y: 0.0
    z: 0.0009920795321060997
    w: 1.0
---
header:
  stamp:
    sec: 44
    nanosec: 384000000
  frame_id: ekf_frame_
pose:
  position:
    x: 0.008868968445343595
    y: 1.3781875474753247e-05
    z: 0.0
  orientation:
    x: 0.0
    y: 0.0
    z: 0.000993053410358828
    w: 1.0
---
header:
  stamp:
    sec: 44
    nanosec: 394000000
  frame_id: ekf_frame_
pose:
  position:
    x: 0.008850483697069025
    y: 1.3745108070342636e-05
    z: 0.0
  orientation:
    x: 0.0
    y: 0.0
    z: 0.0009959273858466168
    w: 1.0
---
header:
  stamp:
    sec: 44
    nanosec: 404000000
  frame_id: ekf_frame_
pose:
  position:
    x: 0.00884854255590231
    y: 1.3741230001780984e-05
    z: 0.0
  orientation:
    x: 0.0
    y: 0.0
    z: 0.000992883311572557
    w: 1.0
---
header:
  stamp:
    sec: 44
    nanosec: 414000000
  frame_id: ekf_frame_
pose:
  position:
    x: 0.008894074405556512
    y: 1.383080373163191e-05
    z: 0.0
  orientation:
    x: 0.0
    y: 0.0
    z: 0.0010099918220586237
    w: 1.0
---
header:
  stamp:
    sec: 44
    nanosec: 414000000
  frame_id: ekf_frame_
pose:
  position:
    x: 0.008909983079172575
    y: 1.3862918481923652e-05
    z: 0.0
  orientation:
    x: 0.0
    y: 0.0
    z: 0.001019511033840165
    w: 1.0
---
header:
  stamp:
    sec: 44
    nanosec: 424000000
  frame_id: ekf_frame_
pose:
  position:
    x: 0.008934551568913839
    y: 1.3912908656962225e-05
    z: 0.0
  orientation:
    x: 0.0
    y: 0.0
    z: 0.0010272018054740466
    w: 1.0
---
header:
  stamp:
    sec: 44
    nanosec: 434000000
  frame_id: ekf_frame_
pose:
  position:
    x: 0.008944608804498272
    y: 1.3933695792400159e-05
    z: 0.0
  orientation:
    x: 0.0
    y: 0.0
    z: 0.0010320900865407963
    w: 1.0
---
header:
  stamp:
    sec: 44
    nanosec: 444000000
  frame_id: ekf_frame_
pose:
  position:
    x: 0.008976415524420921
    y: 1.3999637691235872e-05
    z: 0.0
  orientation:
    x: 0.0
    y: 0.0
    z: 0.0010221242175032024
    w: 1.0
---
header:
  stamp:
    sec: 44
    nanosec: 454000000
  frame_id: ekf_frame_
pose:
  position:
    x: 0.008979715506933666
    y: 1.4006345826548014e-05
    z: 0.0
  orientation:
    x: 0.0
    y: 0.0
    z: 0.0010257522579419085
    w: 1.0
---
header:
  stamp:
    sec: 44
    nanosec: 464000000
  frame_id: ekf_frame_
pose:
  position:
    x: 0.009011145682753928
    y: 1.4070234089347633e-05
    z: 0.0
  orientation:
    x: 0.0
    y: 0.0
    z: 0.001040471706225281
    w: 1.0
---
header:
  stamp:
    sec: 44
    nanosec: 464000000
  frame_id: ekf_frame_
pose:
  position:
    x: 0.009025714156320211
    y: 1.4100859574468677e-05
    z: 0.0
  orientation:
    x: 0.0
    y: 0.0
    z: 0.0010319129786759184
    w: 1.0
---
header:
  stamp:
    sec: 44
    nanosec: 474000000
  frame_id: ekf_frame_
pose:
  position:
    x: 0.009005179223988274
    y: 1.405879458252619e-05
    z: 0.0
  orientation:
    x: 0.0
    y: 0.0
    z: 0.0010343813731640702
    w: 1.0
---
header:
  stamp:
    sec: 44
    nanosec: 484000000
  frame_id: ekf_frame_
pose:
  position:
    x: 0.00900902901825204
    y: 1.4066759793182125e-05
    z: 0.0
  orientation:
    x: 0.0
    y: 0.0
    z: 0.00103512841233926
    w: 1.0
---
header:
  stamp:
    sec: 44
    nanosec: 494000000
  frame_id: ekf_frame_
pose:
  position:
    x: 0.008953517178679544
    y: 1.395130876697262e-05
    z: 0.0
  orientation:
    x: 0.0
    y: 0.0
    z: 0.001024066242197817
    w: 1.0
---
header:
  stamp:
    sec: 44
    nanosec: 504000000
  frame_id: ekf_frame_
pose:
  position:
    x: 0.00897002297703326
    y: 1.3985105728809521e-05
    z: 0.0
  orientation:
    x: 0.0
    y: 0.0
    z: 0.0010189508265219267
    w: 1.0
---
header:
  stamp:
    sec: 44
    nanosec: 514000000
  frame_id: ekf_frame_
pose:
  position:
    x: 0.008962799509586887
    y: 1.3970674188511864e-05
    z: 0.0
  orientation:
    x: 0.0
    y: 0.0
    z: 0.0010252334064715057
    w: 1.0
---
header:
  stamp:
    sec: 44
    nanosec: 514000000
  frame_id: ekf_frame_
pose:
  position:
    x: 0.00890996023472573
    y: 1.3863713033528337e-05
    z: 0.0
  orientation:
    x: 0.0
    y: 0.0
    z: 0.001040121270401625
    w: 1.0
---
header:
  stamp:
    sec: 44
    nanosec: 524000000
  frame_id: ekf_frame_
pose:
  position:
    x: 0.008930925918946427
    y: 1.3907261908278286e-05
    z: 0.0
  orientation:
    x: 0.0
    y: 0.0
    z: 0.001049886780039072
    w: 1.0
---
header:
  stamp:
    sec: 44
    nanosec: 534000000
  frame_id: ekf_frame_
pose:
  position:
    x: 0.00889096429912542
    y: 1.3822542871622377e-05
    z: 0.0
  orientation:
    x: 0.0
    y: 0.0
    z: 0.0010423208677748411
    w: 1.0
---
header:
  stamp:
    sec: 44
    nanosec: 544000000
  frame_id: ekf_frame_
pose:
  position:
    x: 0.008851518898842253
    y: 1.3741012585579688e-05
    z: 0.0
  orientation:
    x: 0.0
    y: 0.0
    z: 0.0010495171539690656
    w: 1.0
---
header:
  stamp:
    sec: 44
    nanosec: 554000000
  frame_id: ekf_frame_
pose:
  position:
    x: 0.008839130553377686
    y: 1.3715018429835362e-05
    z: 0.0
  orientation:
    x: 0.0
    y: 0.0
    z: 0.0010536852856514907
    w: 1.0
---
header:
  stamp:
    sec: 44
    nanosec: 564000000
  frame_id: ekf_frame_
pose:
  position:
    x: 0.008829810951724864
    y: 1.3695279181753231e-05
    z: 0.0
  orientation:
    x: 0.0
    y: 0.0
    z: 0.0010565213393633453
    w: 1.0
---
header:
  stamp:
    sec: 44
    nanosec: 564000000
  frame_id: ekf_frame_
pose:
  position:
    x: 0.008782497462589375
    y: 1.3594393227943031e-05
    z: 0.0
  orientation:
    x: 0.0
    y: 0.0
    z: 0.0010426275835127956
    w: 1.0
---
header:
  stamp:
    sec: 44
    nanosec: 574000000
  frame_id: ekf_frame_
pose:
  position:
    x: 0.008765858286096613
    y: 1.355968017284289e-05
    z: 0.0
  orientation:
    x: 0.0
    y: 0.0
    z: 0.0010349595504941733
    w: 1.0
---
header:
  stamp:
    sec: 44
    nanosec: 584000000
  frame_id: ekf_frame_
pose:
  position:
    x: 0.008747376157102246
    y: 1.352144020855877e-05
    z: 0.0
  orientation:
    x: 0.0
    y: 0.0
    z: 0.0010349943925121504
    w: 1.0
---
header:
  stamp:
    sec: 44
    nanosec: 594000000
  frame_id: ekf_frame_
pose:
  position:
    x: 0.008757728535476057
    y: 1.3542436252182616e-05
    z: 0.0
  orientation:
    x: 0.0
    y: 0.0
    z: 0.0010352389940012597
    w: 1.0
---
header:
  stamp:
    sec: 44
    nanosec: 604000000
  frame_id: ekf_frame_
pose:
  position:
    x: 0.008774480460590086
    y: 1.3577403053919483e-05
    z: 0.0
  orientation:
    x: 0.0
    y: 0.0
    z: 0.0010227302141553934
    w: 1.0
---
header:
  stamp:
    sec: 44
    nanosec: 614000000
  frame_id: ekf_frame_
pose:
  position:
    x: 0.008818224023997517
    y: 1.366535524103007e-05
    z: 0.0
  orientation:
    x: 0.0
    y: 0.0
    z: 0.0010386983032701469
    w: 1.0
---
header:
  stamp:
    sec: 44
    nanosec: 624000000
  frame_id: ekf_frame_
pose:
  position:
    x: 0.008800774314350345
    y: 1.3628982693113041e-05
    z: 0.0
  orientation:
    x: 0.0
    y: 0.0
    z: 0.0010394947098050587
    w: 1.0
---
header:
  stamp:
    sec: 44
    nanosec: 624000000
  frame_id: ekf_frame_
pose:
  position:
    x: 0.008768761539407723
    y: 1.3562437317895872e-05
    z: 0.0
  orientation:
    x: 0.0
    y: 0.0
    z: 0.0010407618384184838
    w: 1.0
---
header:
  stamp:
    sec: 44
    nanosec: 634000000
  frame_id: ekf_frame_
pose:
  position:
    x: 0.008750728054719676
    y: 1.3524910182384307e-05
    z: 0.0
  orientation:
    x: 0.0
    y: 0.0
    z: 0.0010418137063102492
    w: 1.0
---
header:
  stamp:
    sec: 44
    nanosec: 644000000
  frame_id: ekf_frame_
pose:
  position:
    x: 0.008769539420207488
    y: 1.3564318185934453e-05
    z: 0.0
  orientation:
    x: 0.0
    y: 0.0
    z: 0.001041193719240679
    w: 1.0
---
header:
  stamp:
    sec: 44
    nanosec: 654000000
  frame_id: ekf_frame_
pose:
  position:
    x: 0.00873853090393514
    y: 1.3499287405798939e-05
    z: 0.0
  orientation:
    x: 0.0
    y: 0.0
    z: 0.0010203619457131437
    w: 1.0
---
header:
  stamp:
    sec: 44
    nanosec: 664000000
  frame_id: ekf_frame_
pose:
  position:
    x: 0.00875148393215846
    y: 1.3525382744646671e-05
    z: 0.0
  orientation:
    x: 0.0
    y: 0.0
    z: 0.0010295176334769328
    w: 1.0
---
header:
  stamp:
    sec: 44
    nanosec: 674000000
  frame_id: ekf_frame_
pose:
  position:
    x: 0.008706047902161326
    y: 1.3431887745733765e-05
    z: 0.0
  orientation:
    x: 0.0
    y: 0.0
    z: 0.001037769872051686
    w: 1.0
---
header:
  stamp:
    sec: 44
    nanosec: 674000000
  frame_id: ekf_frame_
pose:
  position:
    x: 0.008641060941012703
    y: 1.3298894121979268e-05
    z: 0.0
  orientation:
    x: 0.0
    y: 0.0
    z: 0.0010661216931889448
    w: 1.0
---
header:
  stamp:
    sec: 44
    nanosec: 684000000
  frame_id: ekf_frame_
pose:
  position:
    x: 0.008677267024365411
    y: 1.3375474516517696e-05
    z: 0.0
  orientation:
    x: 0.0
    y: 0.0
    z: 0.0010858605049923972
    w: 1.0
---
header:
  stamp:
    sec: 44
    nanosec: 694000000
  frame_id: ekf_frame_
pose:
  position:
    x: 0.008697103553881962
    y: 1.3418678675289823e-05
    z: 0.0
  orientation:
    x: 0.0
    y: 0.0
    z: 0.0010910135783168814
    w: 1.0
---
header:
  stamp:
    sec: 44
    nanosec: 704000000
  frame_id: ekf_frame_
pose:
  position:
    x: 0.008698233866776544
    y: 1.3421204582564545e-05
    z: 0.0
  orientation:
    x: 0.0
    y: 0.0
    z: 0.0011019869158149893
    w: 1.0
---
header:
  stamp:
    sec: 44
    nanosec: 714000000
  frame_id: ekf_frame_
pose:
  position:
    x: 0.008728011100777916
    y: 1.3486669513064303e-05
    z: 0.0
  orientation:
    x: 0.0
    y: 0.0
    z: 0.0011115857645135018
    w: 1.0
---
header:
  stamp:
    sec: 44
    nanosec: 714000000
  frame_id: ekf_frame_
pose:
  position:
    x: 0.008664568292229531
    y: 1.3344829278764139e-05
    z: 0.0
  orientation:
    x: 0.0
    y: 0.0
    z: 0.0010909439611148776
    w: 1.0
---
header:
  stamp:
    sec: 44
    nanosec: 724000000
  frame_id: ekf_frame_
pose:
  position:
    x: 0.008675564680879716
    y: 1.3368788619062458e-05
    z: 0.0
  orientation:
    x: 0.0
    y: 0.0
    z: 0.0010829090727823008
    w: 1.0
---
header:
  stamp:
    sec: 44
    nanosec: 734000000
  frame_id: ekf_frame_
pose:
  position:
    x: 0.00868878310206958
    y: 1.3397427953113636e-05
    z: 0.0
  orientation:
    x: 0.0
    y: 0.0
    z: 0.0010844726678502087
    w: 1.0
---
header:
  stamp:
    sec: 44
    nanosec: 744000000
  frame_id: ekf_frame_
pose:
  position:
    x: 0.008754187202205634
    y: 1.3538036621952732e-05
    z: 0.0
  orientation:
    x: 0.0
    y: 0.0
    z: 0.0010905735682565274
    w: 1.0
---
header:
  stamp:
    sec: 44
    nanosec: 754000000
  frame_id: ekf_frame_
pose:
  position:
    x: 0.008755382839860338
    y: 1.3540641068059622e-05
    z: 0.0
  orientation:
    x: 0.0
    y: 0.0
    z: 0.0010943244786717357
    w: 1.0
---
header:
  stamp:
    sec: 44
    nanosec: 754000000
  frame_id: ekf_frame_
pose:
  position:
    x: 0.008753307683902353
    y: 1.3536109795030168e-05
    z: 0.0
  orientation:
    x: 0.0
    y: 0.0
    z: 0.0010999975704820038
    w: 1.0
---
header:
  stamp:
    sec: 44
    nanosec: 764000000
  frame_id: ekf_frame_
pose:
  position:
    x: 0.00879105513544783
    y: 1.361915414829644e-05
    z: 0.0
  orientation:
    x: 0.0
    y: 0.0
    z: 0.0011052708443320134
    w: 1.0
---
header:
  stamp:
    sec: 44
    nanosec: 774000000
  frame_id: ekf_frame_
pose:
  position:
    x: 0.008810133543824698
    y: 1.3661827093093352e-05
    z: 0.0
  orientation:
    x: 0.0
    y: 0.0
    z: 0.0010971266019259066
    w: 1.0
---
header:
  stamp:
    sec: 44
    nanosec: 784000000
  frame_id: ekf_frame_
pose:
  position:
    x: 0.008805540654165729
    y: 1.365163366669714e-05
    z: 0.0
  orientation:
    x: 0.0
    y: 0.0
    z: 0.0011171841096407151
    w: 1.0
---
header:
  stamp:
    sec: 44
    nanosec: 794000000
  frame_id: ekf_frame_
pose:
  position:
    x: 0.008813093386109881
    y: 1.3668542916540797e-05
    z: 0.0
  orientation:
    x: 0.0
    y: 0.0
    z: 0.0011238723748247946
    w: 1.0
---
header:
  stamp:
    sec: 44
    nanosec: 794000000
  frame_id: ekf_frame_
pose:
  position:
    x: 0.00881309338615277
    y: 1.3668542916636554e-05
    z: 0.0
  orientation:
    x: 0.0
    y: 0.0
    z: 0.001123872374804292
    w: 1.0
---
header:
  stamp:
    sec: 44
    nanosec: 804000000
  frame_id: ekf_frame_
pose:
  position:
    x: 0.008770897710270053
    y: 1.3572184548505797e-05
    z: 0.0
  orientation:
    x: 0.0
    y: 0.0
    z: 0.0011232460136542256
    w: 1.0
---
header:
  stamp:
    sec: 44
    nanosec: 814000000
  frame_id: ekf_frame_
pose:
  position:
    x: 0.00879358500102928
    y: 1.3622601666798197e-05
    z: 0.0
  orientation:
    x: 0.0
    y: 0.0
    z: 0.0011311134003531072
    w: 1.0
---
header:
  stamp:
    sec: 44
    nanosec: 824000000
  frame_id: ekf_frame_
pose:
  position:
    x: 0.008776616734337415
    y: 1.3584390274695788e-05
    z: 0.0
  orientation:
    x: 0.0
    y: 0.0
    z: 0.0011313003795784843
    w: 1.0
---
header:
  stamp:
    sec: 44
    nanosec: 824000000
  frame_id: ekf_frame_
pose:
  position:
    x: 0.008756834363682915
    y: 1.3539424701411917e-05
    z: 0.0
  orientation:
    x: 0.0
    y: 0.0
    z: 0.0011235894904706733
    w: 1.0
---
header:
  stamp:
    sec: 44
    nanosec: 834000000
  frame_id: ekf_frame_
pose:
  position:
    x: 0.008774447008171465
    y: 1.3579460646192843e-05
    z: 0.0
  orientation:
    x: 0.0
    y: 0.0
    z: 0.0011079712130390772
    w: 1.0
---
header:
  stamp:
    sec: 44
    nanosec: 844000000
  frame_id: ekf_frame_
pose:
  position:
    x: 0.008773757965635856
    y: 1.3577937396900542e-05
    z: 0.0
  orientation:
    x: 0.0
    y: 0.0
    z: 0.0011040725573203422
    w: 1.0
---
header:
  stamp:
    sec: 44
    nanosec: 854000000
  frame_id: ekf_frame_
pose:
  position:
    x: 0.008817879332695936
    y: 1.3675709242080529e-05
    z: 0.0
  orientation:
    x: 0.0
    y: 0.0
    z: 0.0010933944856679543
    w: 1.0
---
header:
  stamp:
    sec: 44
    nanosec: 864000000
  frame_id: ekf_frame_
pose:
  position:
    x: 0.00885102735776893
    y: 1.3748230543625141e-05
    z: 0.0
  orientation:
    x: 0.0
    y: 0.0
    z: 0.00107979198345682
    w: 1.0
---
header:
  stamp:
    sec: 44
    nanosec: 874000000
  frame_id: ekf_frame_
pose:
  position:
    x: 0.008828247690754064
    y: 1.3699164232250399e-05
    z: 0.0
  orientation:
    x: 0.0
    y: 0.0
    z: 0.0010729879794795934
    w: 1.0
---
header:
  stamp:
    sec: 44
    nanosec: 874000000
  frame_id: ekf_frame_
pose:
  position:
    x: 0.00882814245737304
    y: 1.3698938039494494e-05
    z: 0.0
  orientation:
    x: 0.0
    y: 0.0
    z: 0.0010669023986891516
    w: 1.0
---
header:
  stamp:
    sec: 44
    nanosec: 884000000
  frame_id: ekf_frame_
pose:
  position:
    x: 0.008813460357644033
    y: 1.366760928622605e-05
    z: 0.0
  orientation:
    x: 0.0
    y: 0.0
    z: 0.0010660730652102483
    w: 1.0
---
header:
  stamp:
    sec: 44
    nanosec: 894000000
  frame_id: ekf_frame_
pose:
  position:
    x: 0.00883533267750115
    y: 1.3714492665119788e-05
    z: 0.0
  orientation:
    x: 0.0
    y: 0.0
    z: 0.001062383717142332
    w: 1.0
---
header:
  stamp:
    sec: 44
    nanosec: 894000000
  frame_id: ekf_frame_
pose:
  position:
    x: 0.008820161179039195
    y: 1.3682413642282087e-05
    z: 0.0
  orientation:
    x: 0.0
    y: 0.0
    z: 0.001068294936867761
    w: 1.0
---
header:
  stamp:
    sec: 44
    nanosec: 904000000
  frame_id: ekf_frame_
pose:
  position:
    x: 0.008822467940217413
    y: 1.368718553892125e-05
    z: 0.0
  orientation:
    x: 0.0
    y: 0.0
    z: 0.0010714384891101756
    w: 1.0
---
header:
  stamp:
    sec: 44
    nanosec: 914000000
  frame_id: ekf_frame_
pose:
  position:
    x: 0.008886762353280071
    y: 1.3826580835777786e-05
    z: 0.0
  orientation:
    x: 0.0
    y: 0.0
    z: 0.00106413557459245
    w: 1.0
---
header:
  stamp:
    sec: 44
    nanosec: 924000000
  frame_id: ekf_frame_
pose:
  position:
    x: 0.00888713967377802
    y: 1.3827379214602011e-05
    z: 0.0
  orientation:
    x: 0.0
    y: 0.0
    z: 0.001069912893064168
    w: 1.0
---
header:
  stamp:
    sec: 44
    nanosec: 934000000
  frame_id: ekf_frame_
pose:
  position:
    x: 0.008883239132656309
    y: 1.3819007673427766e-05
    z: 0.0
  orientation:
    x: 0.0
    y: 0.0
    z: 0.0010638713153978579
    w: 1.0
---
header:
  stamp:
    sec: 44
    nanosec: 944000000
  frame_id: ekf_frame_
pose:
  position:
    x: 0.008905987142302911
    y: 1.3867349726553247e-05
    z: 0.0
  orientation:
    x: 0.0
    y: 0.0
    z: 0.0010695907195025138
    w: 1.0
---
header:
  stamp:
    sec: 44
    nanosec: 944000000
  frame_id: ekf_frame_
pose:
  position:
    x: 0.008897678406904702
    y: 1.3849593619352916e-05
    z: 0.0
  orientation:
    x: 0.0
    y: 0.0
    z: 0.0010740568559025516
    w: 1.0
---
header:
  stamp:
    sec: 44
    nanosec: 954000000
  frame_id: ekf_frame_
pose:
  position:
    x: 0.008897685257378106
    y: 1.3849638476377903e-05
    z: 0.0
  orientation:
    x: 0.0
    y: 0.0
    z: 0.0010708445673313011
    w: 1.0
---
header:
  stamp:
    sec: 44
    nanosec: 964000000
  frame_id: ekf_frame_
pose:
  position:
    x: 0.008911352545718659
    y: 1.3879016966903247e-05
    z: 0.0
  orientation:
    x: 0.0
    y: 0.0
    z: 0.0010633496479820958
    w: 1.0
---
header:
  stamp:
    sec: 44
    nanosec: 974000000
  frame_id: ekf_frame_
pose:
  position:
    x: 0.008870542379264684
    y: 1.3792265453899275e-05
    z: 0.0
  orientation:
    x: 0.0
    y: 0.0
    z: 0.001062194053970364
    w: 1.0
---
header:
  stamp:
    sec: 44
    nanosec: 984000000
  frame_id: ekf_frame_
pose:
  position:
    x: 0.00885971262716367
    y: 1.3769036354691332e-05
    z: 0.0
  orientation:
    x: 0.0
    y: 0.0
    z: 0.0010575755641143447
    w: 1.0
---
header:
  stamp:
    sec: 44
    nanosec: 994000000
  frame_id: ekf_frame_
pose:
  position:
    x: 0.008906206017643319
    y: 1.3866983510505005e-05
    z: 0.0
  orientation:
    x: 0.0
    y: 0.0
    z: 0.0010602380428127338
    w: 1.0
---
header:
  stamp:
    sec: 44
    nanosec: 994000000
  frame_id: ekf_frame_
pose:
  position:
    x: 0.008943868911351358
    y: 1.3946852921192107e-05
    z: 0.0
  orientation:
    x: 0.0
    y: 0.0
    z: 0.0010611898612964397
    w: 1.0
---
header:
  stamp:
    sec: 45
    nanosec: 4000000
  frame_id: ekf_frame_
pose:
  position:
    x: 0.008970950362564714
    y: 1.400436189780202e-05
    z: 0.0
  orientation:
    x: 0.0
    y: 0.0
    z: 0.0010583175637324813
    w: 1.0
---
header:
  stamp:
    sec: 45
    nanosec: 14000000
  frame_id: ekf_frame_
pose:
  position:
    x: 0.00896775296473032
    y: 1.3997585986684504e-05
    z: 0.0
  orientation:
    x: 0.0
    y: 0.0
    z: 0.001054965881870982
    w: 1.0
---
header:
  stamp:
    sec: 45
    nanosec: 24000000
  frame_id: ekf_frame_
pose:
  position:
    x: 0.008952429573042054
    y: 1.3965254613786866e-05
    z: 0.0
  orientation:
    x: 0.0
    y: 0.0
    z: 0.0010546639844905281
    w: 1.0
---
header:
  stamp:
    sec: 45
    nanosec: 34000000
  frame_id: ekf_frame_
pose:
  position:
    x: 0.008997772775137032
    y: 1.4061299874891008e-05
    z: 0.0
  orientation:
    x: 0.0
    y: 0.0
    z: 0.0010446658765109259
    w: 1.0
---
header:
  stamp:
    sec: 45
    nanosec: 34000000
  frame_id: ekf_frame_
pose:
  position:
    x: 0.00898740740681112
    y: 1.4039607200609114e-05
    z: 0.0
  orientation:
    x: 0.0
    y: 0.0
    z: 0.0010370650070665275
    w: 1.0
---
header:
  stamp:
    sec: 45
    nanosec: 44000000
  frame_id: ekf_frame_
pose:
  position:
    x: 0.009011615564043826
    y: 1.4089885270173767e-05
    z: 0.0
  orientation:
    x: 0.0
    y: 0.0
    z: 0.0010295691577685956
    w: 1.0
---
header:
  stamp:
    sec: 45
    nanosec: 54000000
  frame_id: ekf_frame_
pose:
  position:
    x: 0.009014287572876319
    y: 1.4095459461486701e-05
    z: 0.0
  orientation:
    x: 0.0
    y: 0.0
    z: 0.0010290747131944137
    w: 1.0
---
header:
  stamp:
    sec: 45
    nanosec: 64000000
  frame_id: ekf_frame_
pose:
  position:
    x: 0.009017946685902264
    y: 1.4102838603457033e-05
    z: 0.0
  orientation:
    x: 0.0
    y: 0.0
    z: 0.0010199097950022162
    w: 1.0
---
header:
  stamp:
    sec: 45
    nanosec: 74000000
  frame_id: ekf_frame_
pose:
  position:
    x: 0.009009975848788087
    y: 1.4086543820463857e-05
    z: 0.0
  orientation:
    x: 0.0
    y: 0.0
    z: 0.0010119719239524375
    w: 1.0
---
header:
  stamp:
    sec: 45
    nanosec: 74000000
  frame_id: ekf_frame_
pose:
  position:
    x: 0.008965084380751007
    y: 1.3995690268428981e-05
    z: 0.0
  orientation:
    x: 0.0
    y: 0.0
    z: 0.0010122146959525764
    w: 1.0
---
header:
  stamp:
    sec: 45
    nanosec: 84000000
  frame_id: ekf_frame_
pose:
  position:
    x: 0.008940880151371256
    y: 1.3946696152846317e-05
    z: 0.0
  orientation:
    x: 0.0
    y: 0.0
    z: 0.0010125135204160204
    w: 1.0
---
header:
  stamp:
    sec: 45
    nanosec: 94000000
  frame_id: ekf_frame_
pose:
  position:
    x: 0.008987334598314528
    y: 1.4040255012179565e-05
    z: 0.0
  orientation:
    x: 0.0
    y: 0.0
    z: 0.0010150727940660897
    w: 1.0
---
header:
  stamp:
    sec: 45
    nanosec: 104000000
  frame_id: ekf_frame_
pose:
  position:
    x: 0.008966267018645457
    y: 1.3997262145790332e-05
    z: 0.0
  orientation:
    x: 0.0
    y: 0.0
    z: 0.0010084333892026213
    w: 1.0
---
header:
  stamp:
    sec: 45
    nanosec: 114000000
  frame_id: ekf_frame_
pose:
  position:
    x: 0.00902698080928402
    y: 1.4119844273121065e-05
    z: 0.0
  orientation:
    x: 0.0
    y: 0.0
    z: 0.0010004901550130754
    w: 1.0
---
header:
  stamp:
    sec: 45
    nanosec: 114000000
  frame_id: ekf_frame_
pose:
  position:
    x: 0.008987548031049467
    y: 1.4041261958287846e-05
    z: 0.0
  orientation:
    x: 0.0
    y: 0.0
    z: 0.0010026423367045134
    w: 1.0
---
header:
  stamp:
    sec: 45
    nanosec: 124000000
  frame_id: ekf_frame_
pose:
  position:
    x: 0.009027942630692832
    y: 1.4120492487653225e-05
    z: 0.0
  orientation:
    x: 0.0
    y: 0.0
    z: 0.0010187278668253906
    w: 1.0
---
header:
  stamp:
    sec: 45
    nanosec: 134000000
  frame_id: ekf_frame_
pose:
  position:
    x: 0.009031682596329523
    y: 1.412832090475304e-05
    z: 0.0
  orientation:
    x: 0.0
    y: 0.0
    z: 0.001023357597543482
    w: 1.0
---
header:
  stamp:
    sec: 45
    nanosec: 144000000
  frame_id: ekf_frame_
pose:
  position:
    x: 0.009096689945890819
    y: 1.425986225058972e-05
    z: 0.0
  orientation:
    x: 0.0
    y: 0.0
    z: 0.0010342772058994905
    w: 1.0
---
header:
  stamp:
    sec: 45
    nanosec: 154000000
  frame_id: ekf_frame_
pose:
  position:
    x: 0.009091317907455862
    y: 1.4248688842384066e-05
    z: 0.0
  orientation:
    x: 0.0
    y: 0.0
    z: 0.0010312318307006282
    w: 1.0
---
header:
  stamp:
    sec: 45
    nanosec: 164000000
  frame_id: ekf_frame_
pose:
  position:
    x: 0.009115304919850978
    y: 1.4298525293256383e-05
    z: 0.0
  orientation:
    x: 0.0
    y: 0.0
    z: 0.0010157510965440035
    w: 1.0
---
header:
  stamp:
    sec: 45
    nanosec: 164000000
  frame_id: ekf_frame_
pose:
  position:
    x: 0.00909205259376574
    y: 1.4251372110735218e-05
    z: 0.0
  orientation:
    x: 0.0
    y: 0.0
    z: 0.0010107214166720693
    w: 1.0
---
header:
  stamp:
    sec: 45
    nanosec: 174000000
  frame_id: ekf_frame_
pose:
  position:
    x: 0.009118149050630651
    y: 1.430418069835063e-05
    z: 0.0
  orientation:
    x: 0.0
    y: 0.0
    z: 0.0010091848447644218
    w: 1.0
---
header:
  stamp:
    sec: 45
    nanosec: 184000000
  frame_id: ekf_frame_
pose:
  position:
    x: 0.009115483046863196
    y: 1.429883188262041e-05
    z: 0.0
  orientation:
    x: 0.0
    y: 0.0
    z: 0.0010062622881445561
    w: 1.0
---
header:
  stamp:
    sec: 45
    nanosec: 194000000
  frame_id: ekf_frame_
pose:
  position:
    x: 0.00910247573294688
    y: 1.4272614124101643e-05
    z: 0.0
  orientation:
    x: 0.0
    y: 0.0
    z: 0.0010024855716532506
    w: 1.0
---
header:
  stamp:
    sec: 45
    nanosec: 204000000
  frame_id: ekf_frame_
pose:
  position:
    x: 0.009141582420745194
    y: 1.4350926737512261e-05
    z: 0.0
  orientation:
    x: 0.0
    y: 0.0
    z: 0.0010053575284197916
    w: 1.0
---
header:
  stamp:
    sec: 45
    nanosec: 214000000
  frame_id: ekf_frame_
pose:
  position:
    x: 0.009187678954223125
    y: 1.4443517019088875e-05
    z: 0.0
  orientation:
    x: 0.0
    y: 0.0
    z: 0.0010032693173175618
    w: 1.0
---
header:
  stamp:
    sec: 45
    nanosec: 224000000
  frame_id: ekf_frame_
pose:
  position:
    x: 0.00922134433622226
    y: 1.4511925703605869e-05
    z: 0.0
  orientation:
    x: 0.0
    y: 0.0
    z: 0.000984644171982661
    w: 1.0
---
header:
  stamp:
    sec: 45
    nanosec: 224000000
  frame_id: ekf_frame_
pose:
  position:
    x: 0.009221344239332987
    y: 1.4511925512580837e-05
    z: 0.0
  orientation:
    x: 0.0
    y: 0.0
    z: 0.0009846441576862235
    w: 1.0
---
header:
  stamp:
    sec: 45
    nanosec: 224000000
  frame_id: ekf_frame_
pose:
  position:
    x: 0.009231102658306
    y: 1.4531153868149811e-05
    z: 0.0
  orientation:
    x: 0.0
    y: 0.0
    z: 0.0009736167310181613
    w: 1.0
---
header:
  stamp:
    sec: 45
    nanosec: 234000000
  frame_id: ekf_frame_
pose:
  position:
    x: 0.009173500286922433
    y: 1.4419646439372489e-05
    z: 0.0
  orientation:
    x: 0.0
    y: 0.0
    z: 0.00098389107071362
    w: 1.0
---
header:
  stamp:
    sec: 45
    nanosec: 244000000
  frame_id: ekf_frame_
pose:
  position:
    x: 0.009116182104771681
    y: 1.4307922427524765e-05
    z: 0.0
  orientation:
    x: 0.0
    y: 0.0
    z: 0.0009939445167601692
    w: 1.0
---
header:
  stamp:
    sec: 45
    nanosec: 254000000
  frame_id: ekf_frame_
pose:
  position:
    x: 0.00912256270056743
    y: 1.4320656919841017e-05
    z: 0.0
  orientation:
    x: 0.0
    y: 0.0
    z: 0.0009930369809480744
    w: 1.0
---
header:
  stamp:
    sec: 45
    nanosec: 264000000
  frame_id: ekf_frame_
pose:
  position:
    x: 0.009116334349658185
    y: 1.4308286952792127e-05
    z: 0.0
  orientation:
    x: 0.0
    y: 0.0
    z: 0.000998822360034646
    w: 1.0
---
header:
  stamp:
    sec: 45
    nanosec: 264000000
  frame_id: ekf_frame_
pose:
  position:
    x: 0.009126415118485196
    y: 1.4327491006047729e-05
    z: 0.0
  orientation:
    x: 0.0
    y: 0.0
    z: 0.0010141164003263923
    w: 1.0
---
header:
  stamp:
    sec: 45
    nanosec: 274000000
  frame_id: ekf_frame_
pose:
  position:
    x: 0.009128374658089338
    y: 1.4331485885853752e-05
    z: 0.0
  orientation:
    x: 0.0
    y: 0.0
    z: 0.0010126812998699876
    w: 1.0
---
header:
  stamp:
    sec: 45
    nanosec: 284000000
  frame_id: ekf_frame_
pose:
  position:
    x: 0.00914135126687321
    y: 1.4358173012340076e-05
    z: 0.0
  orientation:
    x: 0.0
    y: 0.0
    z: 0.001014325878527919
    w: 1.0
---
header:
  stamp:
    sec: 45
    nanosec: 284000000
  frame_id: ekf_frame_
pose:
  position:
    x: 0.00913856339073462
    y: 1.4352560677613545e-05
    z: 0.0
  orientation:
    x: 0.0
    y: 0.0
    z: 0.001026794340726675
    w: 1.0
---
header:
  stamp:
    sec: 45
    nanosec: 294000000
  frame_id: ekf_frame_
pose:
  position:
    x: 0.009146040342318756
    y: 1.4367800024337882e-05
    z: 0.0
  orientation:
    x: 0.0
    y: 0.0
    z: 0.0010346830335264297
    w: 1.0
---
header:
  stamp:
    sec: 45
    nanosec: 304000000
  frame_id: ekf_frame_
pose:
  position:
    x: 0.009177361092874908
    y: 1.4432920334220041e-05
    z: 0.0
  orientation:
    x: 0.0
    y: 0.0
    z: 0.0010261507079802486
    w: 1.0
---
header:
  stamp:
    sec: 45
    nanosec: 304000000
  frame_id: ekf_frame_
pose:
  position:
    x: 0.009177361486133018
    y: 1.443292114399654e-05
    z: 0.0
  orientation:
    x: 0.0
    y: 0.0
    z: 0.0010261506652201721
    w: 1.0
---
header:
  stamp:
    sec: 45
    nanosec: 314000000
  frame_id: ekf_frame_
pose:
  position:
    x: 0.009088445764948511
    y: 1.424825189183468e-05
    z: 0.0
  orientation:
    x: 0.0
    y: 0.0
    z: 0.0010159025959454798
    w: 1.0
---
header:
  stamp:
    sec: 45
    nanosec: 324000000
  frame_id: ekf_frame_
pose:
  position:
    x: 0.009104997345669337
    y: 1.4280728880251012e-05
    z: 0.0
  orientation:
    x: 0.0
    y: 0.0
    z: 0.0010307428809499793
    w: 1.0
---
header:
  stamp:
    sec: 45
    nanosec: 334000000
  frame_id: ekf_frame_
pose:
  position:
    x: 0.009153672765333024
    y: 1.4380750562409314e-05
    z: 0.0
  orientation:
    x: 0.0
    y: 0.0
    z: 0.0010454921169238472
    w: 1.0
---
header:
  stamp:
    sec: 45
    nanosec: 344000000
  frame_id: ekf_frame_
pose:
  position:
    x: 0.009138076549427623
    y: 1.4348187451638935e-05
    z: 0.0
  orientation:
    x: 0.0
    y: 0.0
    z: 0.0010551925332323406
    w: 1.0
---
header:
  stamp:
    sec: 45
    nanosec: 344000000
  frame_id: ekf_frame_
pose:
  position:
    x: 0.009138819925301198
    y: 1.4349756332547179e-05
    z: 0.0
  orientation:
    x: 0.0
    y: 0.0
    z: 0.0010535966955136295
    w: 1.0
---
header:
  stamp:
    sec: 45
    nanosec: 354000000
  frame_id: ekf_frame_
pose:
  position:
    x: 0.009081447262761028
    y: 1.422865786977625e-05
    z: 0.0
  orientation:
    x: 0.0
    y: 0.0
    z: 0.0010484196556821669
    w: 1.0
---
header:
  stamp:
    sec: 45
    nanosec: 364000000
  frame_id: ekf_frame_
pose:
  position:
    x: 0.009073794110172279
    y: 1.4212589618604164e-05
    z: 0.0
  orientation:
    x: 0.0
    y: 0.0
    z: 0.0010437966071635447
    w: 1.0
---
header:
  stamp:
    sec: 45
    nanosec: 374000000
  frame_id: ekf_frame_
pose:
  position:
    x: 0.009076530119135909
    y: 1.4218341078907473e-05
    z: 0.0
  orientation:
    x: 0.0
    y: 0.0
    z: 0.001042832390462654
    w: 1.0
---
header:
  stamp:
    sec: 45
    nanosec: 374000000
  frame_id: ekf_frame_
pose:
  position:
    x: 0.00907898341800533
    y: 1.4223482958721757e-05
    z: 0.0
  orientation:
    x: 0.0
    y: 0.0
    z: 0.001034674157006461
    w: 1.0
---
header:
  stamp:
    sec: 45
    nanosec: 384000000
  frame_id: ekf_frame_
pose:
  position:
    x: 0.00906463017282109
    y: 1.4193556481381276e-05
    z: 0.0
  orientation:
    x: 0.0
    y: 0.0
    z: 0.0010269182342090694
    w: 1.0
---
header:
  stamp:
    sec: 45
    nanosec: 394000000
  frame_id: ekf_frame_
pose:
  position:
    x: 0.00906707781754393
    y: 1.4198564329983548e-05
    z: 0.0
  orientation:
    x: 0.0
    y: 0.0
    z: 0.00102892320867172
    w: 1.0
---
header:
  stamp:
    sec: 45
    nanosec: 404000000
  frame_id: ekf_frame_
pose:
  position:
    x: 0.009061896399725787
    y: 1.418790360988087e-05
    z: 0.0
  orientation:
    x: 0.0
    y: 0.0
    z: 0.001026867362095497
    w: 1.0
---
header:
  stamp:
    sec: 45
    nanosec: 414000000
  frame_id: ekf_frame_
pose:
  position:
    x: 0.009083359267628311
    y: 1.4232257079693181e-05
    z: 0.0
  orientation:
    x: 0.0
    y: 0.0
    z: 0.00102793841468126
    w: 1.0
---
header:
  stamp:
    sec: 45
    nanosec: 414000000
  frame_id: ekf_frame_
pose:
  position:
    x: 0.00909501465351618
    y: 1.4256072278905177e-05
    z: 0.0
  orientation:
    x: 0.0
    y: 0.0
    z: 0.0010379221042423818
    w: 1.0
---
header:
  stamp:
    sec: 45
    nanosec: 424000000
  frame_id: ekf_frame_
pose:
  position:
    x: 0.009079315607410992
    y: 1.4223664493435605e-05
    z: 0.0
  orientation:
    x: 0.0
    y: 0.0
    z: 0.0010453226244627643
    w: 1.0
---
header:
  stamp:
    sec: 45
    nanosec: 434000000
  frame_id: ekf_frame_
pose:
  position:
    x: 0.009059407017424262
    y: 1.4182045011475323e-05
    z: 0.0
  orientation:
    x: 0.0
    y: 0.0
    z: 0.0010491108727110968
    w: 1.0
---
header:
  stamp:
    sec: 45
    nanosec: 444000000
  frame_id: ekf_frame_
pose:
  position:
    x: 0.009099993363721843
    y: 1.4268358686177647e-05
    z: 0.0
  orientation:
    x: 0.0
    y: 0.0
    z: 0.0010408455133473085
    w: 1.0
---
header:
  stamp:
    sec: 45
    nanosec: 454000000
  frame_id: ekf_frame_
pose:
  position:
    x: 0.009079061259809859
    y: 1.4224944633234701e-05
    z: 0.0
  orientation:
    x: 0.0
    y: 0.0
    z: 0.0010406403375725572
    w: 1.0
---
header:
  stamp:
    sec: 45
    nanosec: 464000000
  frame_id: ekf_frame_
pose:
  position:
    x: 0.009084175560622094
    y: 1.4235274497271596e-05
    z: 0.0
  orientation:
    x: 0.0
    y: 0.0
    z: 0.0010319494290450507
    w: 1.0
---
header:
  stamp:
    sec: 45
    nanosec: 464000000
  frame_id: ekf_frame_
pose:
  position:
    x: 0.009081067598073674
    y: 1.4228834306426306e-05
    z: 0.0
  orientation:
    x: 0.0
    y: 0.0
    z: 0.0010214299369142637
    w: 1.0
---
header:
  stamp:
    sec: 45
    nanosec: 474000000
  frame_id: ekf_frame_
pose:
  position:
    x: 0.00911415720104863
    y: 1.429643172247865e-05
    z: 0.0
  orientation:
    x: 0.0
    y: 0.0
    z: 0.001017461857954705
    w: 1.0
---
header:
  stamp:
    sec: 45
    nanosec: 484000000
  frame_id: ekf_frame_
pose:
  position:
    x: 0.009078448122157318
    y: 1.4223907742131661e-05
    z: 0.0
  orientation:
    x: 0.0
    y: 0.0
    z: 0.0010604888547513442
    w: 1.0
---
header:
  stamp:
    sec: 45
    nanosec: 494000000
  frame_id: ekf_frame_
pose:
  position:
    x: 0.009087720140524199
    y: 1.424264837816238e-05
    z: 0.0
  orientation:
    x: 0.0
    y: 0.0
    z: 0.001085414600749859
    w: 1.0
---
header:
  stamp:
    sec: 45
    nanosec: 494000000
  frame_id: ekf_frame_
pose:
  position:
    x: 0.009073538454115324
    y: 1.4211780501948792e-05
    z: 0.0
  orientation:
    x: 0.0
    y: 0.0
    z: 0.0010935540698479606
    w: 1.0
---
header:
  stamp:
    sec: 45
    nanosec: 504000000
  frame_id: ekf_frame_
pose:
  position:
    x: 0.009051243831701812
    y: 1.4163019636192847e-05
    z: 0.0
  orientation:
    x: 0.0
    y: 0.0
    z: 0.001092390131701774
    w: 1.0
---
header:
  stamp:
    sec: 45
    nanosec: 514000000
  frame_id: ekf_frame_
pose:
  position:
    x: 0.009031982215175427
    y: 1.4120935629056604e-05
    z: 0.0
  orientation:
    x: 0.0
    y: 0.0
    z: 0.0010933922396780588
    w: 1.0
---
header:
  stamp:
    sec: 45
    nanosec: 514000000
  frame_id: ekf_frame_
pose:
  position:
    x: 0.009047824508129637
    y: 1.4155572139648691e-05
    z: 0.0
  orientation:
    x: 0.0
    y: 0.0
    z: 0.0010942352779853954
    w: 1.0
---
header:
  stamp:
    sec: 45
    nanosec: 534000000
  frame_id: ekf_frame_
pose:
  position:
    x: 0.009004323106142612
    y: 1.4060460044894992e-05
    z: 0.0
  orientation:
    x: 0.0
    y: 0.0
    z: 0.0010931510332581195
    w: 1.0
---
header:
  stamp:
    sec: 45
    nanosec: 534000000
  frame_id: ekf_frame_
pose:
  position:
    x: 0.009021275532327316
    y: 1.4097470193080262e-05
    z: 0.0
  orientation:
    x: 0.0
    y: 0.0
    z: 0.001093833257777132
    w: 1.0
---
header:
  stamp:
    sec: 45
    nanosec: 544000000
  frame_id: ekf_frame_
pose:
  position:
    x: 0.009033495134911097
    y: 1.4123837440843196e-05
    z: 0.0
  orientation:
    x: 0.0
    y: 0.0
    z: 0.0011100190981713103
    w: 1.0
---
header:
  stamp:
    sec: 45
    nanosec: 554000000
  frame_id: ekf_frame_
pose:
  position:
    x: 0.009047709005216155
    y: 1.415527417399818e-05
    z: 0.0
  orientation:
    x: 0.0
    y: 0.0
    z: 0.0011243658342334681
    w: 1.0
---
header:
  stamp:
    sec: 45
    nanosec: 554000000
  frame_id: ekf_frame_
pose:
  position:
    x: 0.00904385331359322
    y: 1.4146603659329073e-05
    z: 0.0
  orientation:
    x: 0.0
    y: 0.0
    z: 0.0011198779186693726
    w: 1.0
---
header:
  stamp:
    sec: 45
    nanosec: 564000000
  frame_id: ekf_frame_
pose:
  position:
    x: 0.008932747081186616
    y: 1.3898921829596778e-05
    z: 0.0
  orientation:
    x: 0.0
    y: 0.0
    z: 0.0011275863091297375
    w: 1.0
---
header:
  stamp:
    sec: 45
    nanosec: 574000000
  frame_id: ekf_frame_
pose:
  position:
    x: 0.008996856737134165
    y: 1.4043612397028901e-05
    z: 0.0
  orientation:
    x: 0.0
    y: 0.0
    z: 0.0011290054427338606
    w: 1.0
---
header:
  stamp:
    sec: 45
    nanosec: 584000000
  frame_id: ekf_frame_
pose:
  position:
    x: 0.008995634174896705
    y: 1.4040848112648647e-05
    z: 0.0
  orientation:
    x: 0.0
    y: 0.0
    z: 0.0011274380970889449
    w: 1.0
---
header:
  stamp:
    sec: 45
    nanosec: 594000000
  frame_id: ekf_frame_
pose:
  position:
    x: 0.008981521650037195
    y: 1.4008910612620233e-05
    z: 0.0
  orientation:
    x: 0.0
    y: 0.0
    z: 0.00113667680076043
    w: 1.0
---
header:
  stamp:
    sec: 45
    nanosec: 594000000
  frame_id: ekf_frame_
pose:
  position:
    x: 0.008977878778396694
    y: 1.4000619177876114e-05
    z: 0.0
  orientation:
    x: 0.0
    y: 0.0
    z: 0.0011392599842873824
    w: 1.0
---
header:
  stamp:
    sec: 45
    nanosec: 604000000
  frame_id: ekf_frame_
pose:
  position:
    x: 0.008931543220962417
    y: 1.3895387165727541e-05
    z: 0.0
  orientation:
    x: 0.0
    y: 0.0
    z: 0.0011466570594656474
    w: 1.0
---
header:
  stamp:
    sec: 45
    nanosec: 614000000
  frame_id: ekf_frame_
pose:
  position:
    x: 0.008940468226857765
    y: 1.3915893181100251e-05
    z: 0.0
  orientation:
    x: 0.0
    y: 0.0
    z: 0.001147154304709608
    w: 1.0
---
header:
  stamp:
    sec: 45
    nanosec: 624000000
  frame_id: ekf_frame_
pose:
  position:
    x: 0.00892666859197362
    y: 1.3884449249748547e-05
    z: 0.0
  orientation:
    x: 0.0
    y: 0.0
    z: 0.0011555305779472403
    w: 1.0
---
header:
  stamp:
    sec: 45
    nanosec: 634000000
  frame_id: ekf_frame_
pose:
  position:
    x: 0.008924150389434282
    y: 1.387893822416194e-05
    z: 0.0
  orientation:
    x: 0.0
    y: 0.0
    z: 0.00116280706225184
    w: 1.0
---
header:
  stamp:
    sec: 45
    nanosec: 634000000
  frame_id: ekf_frame_
pose:
  position:
    x: 0.008906505979514681
    y: 1.3837795455000198e-05
    z: 0.0
  orientation:
    x: 0.0
    y: 0.0
    z: 0.0011618305943297846
    w: 1.0
---
header:
  stamp:
    sec: 45
    nanosec: 644000000
  frame_id: ekf_frame_
pose:
  position:
    x: 0.008927121942544707
    y: 1.3885476965095876e-05
    z: 0.0
  orientation:
    x: 0.0
    y: 0.0
    z: 0.0011685153250037238
    w: 1.0
---
header:
  stamp:
    sec: 45
    nanosec: 654000000
  frame_id: ekf_frame_
pose:
  position:
    x: 0.008932255134671744
    y: 1.3897489685006898e-05
    z: 0.0
  orientation:
    x: 0.0
    y: 0.0
    z: 0.0011694779677764624
    w: 1.0
---
header:
  stamp:
    sec: 45
    nanosec: 654000000
  frame_id: ekf_frame_
pose:
  position:
    x: 0.008933688435515237
    y: 1.3900842118750112e-05
    z: 0.0
  orientation:
    x: 0.0
    y: 0.0
    z: 0.0011650942735671104
    w: 1.0
---
header:
  stamp:
    sec: 45
    nanosec: 664000000
  frame_id: ekf_frame_
pose:
  position:
    x: 0.008935674139859493
    y: 1.3905285216865794e-05
    z: 0.0
  orientation:
    x: 0.0
    y: 0.0
    z: 0.0011594942910354217
    w: 1.0
---
header:
  stamp:
    sec: 45
    nanosec: 674000000
  frame_id: ekf_frame_
pose:
  position:
    x: 0.008922670547398918
    y: 1.3875116650340385e-05
